stop_lat,stop_id,stop_lon,stop_name
56.823866,31613,60.674798,Синие Камни
56.81154,31388,60.542588,АТП
56.782636,31804,60.520435,ЖК Аксиома
56.787286,31412,60.783054,Эстонская
56.789578,31413,60.775396,Клуб
56.793997,31414,60.773734,Белоярская
56.797535,31171,60.611838,Фучика
56.844809,31601,60.704327,пос. Пески
56.762412,31705,60.572552,Ротная
56.828015,30721,60.693449,ЖБИ
56.828671,31727,60.66331,Парфюмерная фабрика
56.637851,105857,60.591418,Шабры
56.887611,31687,60.606941,Кузнецова
56.831127,31781,60.443466,Стрельбище Динамо
56.882811,31698,60.536536,Уралтехгаз
56.82603,31295,60.592872,Сакко и Ванцетти (ул. Куйбышева)
56.834897,31296,60.591801,Попова
56.7978,31169,60.561767,Онуфриева (ул. Громова)
56.816616,31545,60.426748,5-й км Чусовского тракта
56.890485,30494,60.633487,Краснофлотцев
56.892083,30495,60.638161,Шефская (ул. Краснофлотцев)
56.842324,30791,60.637879,Автомобильный колледж
56.746605,31623,60.566153,Счастливая
56.83085,31662,60.637096,Шарташский рынок
56.828585,31663,60.647731,Станция Шарташ
56.781282,31844,60.654457,Щербакова
56.780325,31845,60.648376,Лыжников
56.776652,31846,60.639186,Детский сад
56.776928,31847,60.639901,Детский сад
56.780399,31848,60.65149,Лыжников
56.825921,31614,60.680855,Есенина
56.828682,31616,60.668625,Гимназия Корифей
56.828791,31617,60.664242,Байкальская
56.832514,31455,60.654782,Уралобувь
56.838335,31456,60.652633,Мира (УПИ)
56.840675,31124,60.651769,Профессорская
56.843323,31457,60.650791,Уральский федеральный университет (ул. Мира)
56.843004,30790,60.643912,Уральский федеральный университет
56.841525,30792,60.630268,Восточная
56.84004,30793,60.616707,Оперный театр
56.839021,30794,60.608429,пл. Труда
56.836052,30795,60.59925,Метро Площадь 1905 года
56.828173,30796,60.601788,ТРЦ Гринвич
56.821809,30797,60.605122,Академия при Президенте РФ
56.817353,30798,60.606804,Большакова
56.813012,30799,60.608356,Фрунзе (ул. 8 Марта)
56.808476,30800,60.608465,Автовокзал
56.80738,30801,60.597622,Серова (ул. Щорса)
56.805743,30802,60.590584,Шаумяна
56.801077,30803,60.584757,Волгоградская (ул. Амундсена)
56.797022,31093,60.579691,Амундсена
56.792683,31094,60.574272,Онуфриева (ул. Амундсена)
56.779848,31095,60.558403,Академика Вонсовского
56.77599,31096,60.551353,Рабочая
56.772865,31097,60.545642,Лесная (по требованию)
56.770853,31098,60.54307,ТК Академический
56.768054,31303,60.547792,УНЦ микрорайон
56.765146,31618,60.555905,Патра
56.76266,31619,60.566596,Городская
56.760025,31620,60.565697,Дом Культуры (пос. Совхозный)
56.748383,31621,60.568399,Чемпионов
56.74622,31622,60.565341,Счастливая
56.744544,30880,60.568886,Солнечный микрорайон
56.76828,31059,60.547614,УНЦ микрорайон
56.771383,31060,60.543164,ТК Академический
56.773319,31061,60.546702,Лесная (по требованию)
56.776595,31062,60.552689,Рабочая
56.779268,31063,60.557574,Академика Вонсовского
56.793116,31064,60.575012,Онуфриева (ул. Амундсена)
56.797733,30827,60.580777,Амундсена
56.806872,30829,60.593487,Шаумяна
56.807449,30830,60.599203,Серова (ул. Щорса)
56.809537,30831,60.609771,Автовокзал
56.81417,30832,60.608102,Фрунзе (ул. 8 Марта)
56.818104,30833,60.606709,Большакова
56.826033,30834,60.603717,Цирк
56.836471,30835,60.599524,Метро Площадь 1905 года
56.837859,30836,60.600285,Колледж им. Ползунова
56.838782,30837,60.608764,пл. Труда
56.839842,30838,60.618843,Оперный театр
56.841194,30839,60.63036,Восточная
56.842012,30840,60.637092,Автомобильный колледж
56.842604,31626,60.645429,Уральский федеральный университет (ул. Гагарина)
56.839896,31453,60.651569,Профессорская
56.83426,31454,60.653653,Педагогическая (ул. Мира)
56.831751,31627,60.656353,Уралобувь
56.830136,31628,60.663544,Парфюмерная фабрика
56.828856,31629,60.664401,Байкальская
56.828333,31630,60.670003,Гимназия Корифей
56.828086,31631,60.674469,Бычковой
56.8252,31632,60.680666,Есенина
56.823808,31633,60.675093,Синие Камни
56.825231,31248,60.644903,ДК Гагарина
56.82613,31249,60.636864,Сибирский тракт
56.824842,31250,60.625331,Луначарского
56.823982,31251,60.617354,Белинского (ул. Декабристов)
56.815515,31297,60.605807,8 Марта (ул. Фурманова)
56.814653,31298,60.595784,Серова (ул. Фурманова)
56.813973,31299,60.588733,Московская (ул. Фурманова)
56.81111,31300,60.579669,Чкалова (ул. Шаумяна)
56.809007,31301,60.585231,Хасановская
56.806109,31755,60.592489,Шаумяна
56.803646,31756,60.593337,Циолковского
56.799227,31757,60.59381,Николая Островского
56.797838,30804,60.579249,Амундсена
56.7999,30805,60.573764,Решетникова
56.802421,30806,60.567055,Чкалова
56.80377,30807,60.563466,Бардина
56.806557,30808,60.556052,Ясная
56.809375,30809,60.548553,Микрохирургия глаза
56.811356,31394,60.543276,АТП
56.817404,31758,60.542137,Ухтомская
56.818946,31386,60.537615,Новомосковская
56.81759,31406,60.532922,Отрадная
56.816745,30862,60.522022,Контрольная
56.813369,30890,60.517086,Кольцевая дорога
56.822612,30859,60.502668,СТЦ Мега
56.821308,30860,60.500824,Лесхоз
56.817113,30861,60.50977,Сад Юг
56.816153,31409,60.523236,Контрольная
56.817373,31410,60.532143,Отрадная
56.813813,31387,60.53653,Зоологическая
56.809161,30822,60.548921,Микрохирургия глаза
56.806391,30823,60.556292,Ясная
56.804691,30824,60.560813,Бардина
56.802811,31746,60.562989,Бардина
56.798365,31209,60.557516,Громова
56.79846,31747,60.560916,Областной рынок на Громова
56.798233,31170,60.562448,Онуфриева (ул. Громова)
56.801902,30825,60.568234,Чкалова
56.799266,30826,60.575249,Решетникова
56.800958,31748,60.588004,Волгоградская (ул. Амундсена)
56.799584,31749,60.594852,Николая Островского
56.804197,31750,60.593264,Циолковского
56.807322,31291,60.59219,Шаумяна
56.814302,31292,60.592767,Московская (ул. Фурманова)
56.815193,31751,60.603109,Облсобес (ул. Фурманова)
56.817904,31752,60.607937,Большакова
56.818622,31753,60.61423,Музей Бажова
56.824096,31754,60.619,Белинского (ул. Декабристов)
56.824947,31214,60.626902,Луначарского
56.82495,31215,60.645924,ДК Гагарина
56.893757,31426,60.484772,ДМБ №9
56.89073,31428,60.48803,Белякова
56.887112,31429,60.490584,Матросская
56.884859,31430,60.498304,Трамвайное кольцо
56.888524,31431,60.503473,Ангарская
56.888796,30475,60.506629,Хладокомбинат №3
56.88483,30476,60.510208,Торговый центр
56.880628,30477,60.517214,Расточная (ул. Билимбаевская)
56.878396,30478,60.514143,Кунарская
56.870841,30479,60.520785,Ватутина
56.866151,30480,60.53209,Техническая
56.864099,30481,60.537928,ДК ВОС
56.862997,30482,60.541161,Теплоходный проезд
56.860492,30745,60.549023,Таганский ряд
56.855398,31082,60.552795,Заречный (ул. Бебеля)
56.854269,31083,60.561006,Бебеля (ул. Опалихинская)
56.850796,31084,60.563598,Опалихинская
56.847852,31085,60.565286,Готвальда
56.839643,31432,60.570393,Крылова
56.836119,30925,60.583363,пл. Коммунаров
56.837336,30926,60.595501,пл. 1905 года
56.776543,31150,60.551724,Рабочая
56.779775,31151,60.54585,Полянка
56.784248,30817,60.537731,Барвинка
56.788568,31152,60.529954,Двинская
56.793489,31389,60.521219,Академический микрорайон
56.795696,31390,60.517236,Очеретина
56.797767,31112,60.512647,Рябинина
56.794054,31113,60.505813,Павла Шаманова (ул. Рябинина)
56.792515,31391,60.502675,ТЦ Лента
56.79454,31154,60.5068,Павла Шаманова (ул. Рябинина)
56.797572,31392,60.51339,Рябинина
56.795437,31393,60.517243,Очеретина
56.792712,31115,60.522143,Академический микрорайон
56.788054,30813,60.530419,Двинская
56.785059,30814,60.535811,Барвинка
56.782674,30815,60.540116,Чкалова-Краснолесья
56.780939,30816,60.543101,Краснолесье
56.779145,31116,60.546532,Полянка
56.83601,30949,60.599681,Метро Площадь 1905 года
56.837601,30950,60.595386,пл. 1905 года
56.837167,30951,60.590385,Маршала Жукова
56.836265,30952,60.580846,пл. Коммунаров
56.839631,31420,60.571024,Крылова
56.846935,31070,60.562668,Готвальда
56.84998,31071,60.564419,Опалихинская
56.854359,31072,60.55945,Бебеля (ул. Опалихинская)
56.855247,31073,60.553118,Заречный (ул. Бебеля)
56.861146,30465,60.547837,Таганский ряд
56.864557,30466,60.53692,ДК ВОС
56.865875,30467,60.533145,Техническая
56.872298,30468,60.520058,Ватутина
56.874609,30469,60.517052,Маневровая
56.87896,30470,60.51506,Кунарская
56.881612,30471,60.517493,Билимбаевская
56.884066,30472,60.512177,Торговый центр
56.889003,30473,60.506822,Хладокомбинат №3
56.884501,31423,60.49772,Трамвайное кольцо
56.887905,31424,60.489751,Матросская
56.892388,31425,60.488465,Белякова
56.910661,31427,60.487377,пос. Шувакиш
56.760183,31256,60.82041,Станция Кольцово
56.756944,31257,60.819016,Авиагородок
56.778685,31262,60.789807,Сад Рябинушка
56.783361,31232,60.781227,Октябрьская
56.785456,31233,60.773733,14-й км
56.786276,31234,60.767775,13-й км
56.786289,31235,60.752189,12-й км
56.78477,31236,60.737253,Птицефабрика
56.789475,31237,60.729577,11-й км
56.795143,31238,60.726449,10-й км
56.800061,31239,60.727164,Станция Лечебная
56.806105,31240,60.722312,пос. Чапаева
56.809813,31241,60.714395,Тубсанаторий (Сибирский тракт)
56.810968,31242,60.707118,Психбольница
56.812795,31243,60.693208,Станция Путёвка
56.816235,31244,60.680608,Каменный карьер
56.818375,31245,60.6684,Лесопарк
56.821254,31246,60.660929,Лесотехнический университет
56.824173,31247,60.657275,Комсомольская (ул. Куйбышева)
56.824552,31009,60.617898,Декабристов (ул. Белинского)
56.827826,31010,60.616767,Куйбышева (ул. Белинского)
56.831328,31011,60.615903,Карла Маркса (ул. Белинского)
56.834629,31012,60.614351,Библиотека Белинского
56.836279,30732,60.612628,Проспект Ленина (ул. Карла Либкнехта)
56.840343,30733,60.611198,Архитектурная академия
56.8471,30734,60.609288,ТЮЗ
56.849654,30735,60.606341,Дом Музыки
56.857947,31015,60.606765,Ж/д вокзал
56.857116,31263,60.605508,Ж/д вокзал
56.853483,30751,60.604651,Азина
56.850748,30752,60.605502,Дом Музыки
56.847049,30753,60.609019,ТЮЗ
56.842553,31264,60.61017,Филармония
56.841019,30754,60.610687,Архитектурная академия
56.83787,30755,60.611691,Проспект Ленина (ул. Карла Либкнехта)
56.836128,30756,60.621002,Дом Кино
56.828129,31213,60.624909,Телестудия
56.821012,31216,60.661332,Лесотехнический университет
56.817434,31217,60.671393,Лесопарк
56.815845,31218,60.681542,Каменный карьер
56.81276,31219,60.694221,Станция Путёвка
56.810754,31220,60.708076,Психбольница
56.809459,31221,60.715641,Тубсанаторий (Сибирский тракт)
56.805574,31222,60.722692,пос. Чапаева
56.784381,31226,60.73854,Птицефабрика
56.786416,31227,60.753256,12-й км
56.786213,31228,60.767775,13-й км
56.784959,31229,60.775026,14-й км
56.783255,31230,60.781782,Октябрьская
56.77875,31265,60.789471,Сад Рябинушка
56.772658,31266,60.790616,Сады (ул. Сибирский тракт)
56.767669,31267,60.789236,Сад Авиатор-5
56.750738,31268,60.801131,Аэропорт Кольцово (в сторону Кольцово)
56.752024,31269,60.816002,Бахчиванджи
56.757497,31270,60.819307,Авиагородок
56.760115,31271,60.820364,Станция Кольцово
56.839386,30728,60.643327,Гагарина
56.838649,30729,60.636832,Генеральская
56.835372,31379,60.634205,Энгельса
56.830414,31380,60.636106,Шарташский рынок
56.82287,31019,60.611377,Чапаева (ул. Декабристов)
56.818496,31801,60.612274,Музей Бажова
56.817223,31506,60.603811,Аэроагентство
56.816126,31293,60.59043,Дворец Спорта
56.818025,31507,60.58429,ТРЦ ФанФан
56.820827,31508,60.576624,Посадская
56.820982,31149,60.568411,Белореченская
56.816524,31091,60.563122,ТЦ Буревестник
56.811678,31092,60.559481,Медгородок
56.8073,30810,60.542386,Горбольница №6
56.793054,30811,60.521147,Академический микрорайон
56.789446,30956,60.51445,Павла Шаманова
56.787161,31802,60.512296,Вильгельма де Геннина
56.785136,31803,60.515938,Преображенский парк
56.780009,31805,60.525156,Европейский микрорайон
56.777639,31806,60.529438,Преображенский квартал
56.774017,31807,60.53631,ЖК Сахаров
56.766353,31302,60.550009,Академгородок (УНЦ)
56.77133,31808,60.542287,ТК Академический
56.774468,31809,60.535985,ЖК Сахаров
56.778206,31810,60.528902,Преображенский квартал
56.78035,31811,60.525048,Европейский микрорайон
56.78333,31812,60.519689,ЖК Аксиома
56.785557,31813,60.515682,Преображенский парк
56.789664,30819,60.515368,Павла Шаманова
56.793278,30820,60.522077,Академический микрорайон
56.808117,30821,60.544418,Горбольница №6
56.80592,31065,60.559507,Ясная
56.811891,31066,60.559116,Медгородок
56.818011,31117,60.565,ТЦ Буревестник
56.821607,31118,60.569367,Белореченская
56.818005,31514,60.582913,ТРЦ ФанФан
56.827004,31375,60.637666,Сибирский тракт
56.82911,31376,60.636807,Шарташский рынок
56.834099,31377,60.634861,Центр Восточный
56.838678,30758,60.638461,Генеральская
56.839333,30759,60.644233,Гагарина
56.779329,31664,60.795384,Трактовая
56.780908,31411,60.79011,Поворот на УКЗ
56.796248,31415,60.768183,Латвийская
56.79775,31416,60.763669,Компрессорный микрорайон
56.797407,31400,60.764292,Компрессорный микрорайон
56.793382,31401,60.769523,Стадион
56.789353,31402,60.775598,Клуб
56.786407,31403,60.78293,Эстонская
56.862121,30710,60.663852,Сахалинская
56.858518,30711,60.656338,Студенческая (ул. Блюхера)
56.856259,30712,60.651599,ТЦ Современник
56.853584,30713,60.645916,Мира
56.851562,30530,60.6405,Блюхера
56.854088,30531,60.636464,Советская (ул. Уральская)
56.857551,30532,60.630932,Учителей (ул. Уральская)
56.859922,30533,60.627142,Кондукторская
56.859105,30534,60.620558,Пионерская
56.856344,30606,60.6145,Челюскинцев
56.85155,30607,60.616178,Протезно-ортопедическое предприятие
56.848956,30608,60.617086,Шевченко
56.845673,30609,60.618235,Шарташская
56.840973,30610,60.620069,Гостиница Исеть
56.836669,31040,60.621727,Дом Кино
56.828862,30506,60.624682,Дом художника
56.824552,30507,60.626383,Декабристов (ул. Луначарского)
56.822639,30508,60.629494,пл. Обороны
56.82279,30509,60.6359,Тверитина
56.818676,30510,60.638708,ЦПКиО
56.822939,30511,60.63591,Тверитина
56.822653,30512,60.629293,пл. Обороны
56.824639,30513,60.626416,Декабристов (ул. Луначарского)
56.830131,30841,60.624268,Дом художника
56.836037,30842,60.622033,Дом Кино
56.83968,30843,60.620654,Киностудия
56.841969,30570,60.619734,Гостиница Исеть
56.845241,30571,60.618453,Шарташская
56.848641,30572,60.617263,Шевченко
56.851123,30573,60.616394,Протезно-ортопедическое предприятие
56.856555,30574,60.614492,Челюскинцев
56.859159,30575,60.620762,Пионерская
56.86004,30576,60.626866,Кондукторская
56.857994,30577,60.630137,Учителей (ул. Уральская)
56.854411,30578,60.635861,Советская (ул. Уральская)
56.851799,30714,60.642362,Блюхера
56.853207,30715,60.645252,Мира
56.856071,30716,60.651321,ТЦ Современник
56.858088,30717,60.655574,Студенческая (ул. Блюхера)
56.861823,30718,60.663358,Сахалинская
56.864131,30719,60.668805,Шарташ
56.775465,31005,60.624103,Табачная фабрика
56.776969,30652,60.626487,Южный проезд
56.781614,30653,60.631502,Кварцевая
56.789843,30655,60.640392,Самолётная
56.792688,30945,60.642983,Самолётная (ул. Щербакова)
56.798001,30707,60.633538,Шварца
56.801295,30946,60.629648,Саввы Белых
56.805389,30947,60.625515,Авиационная
56.810833,31006,60.622761,Щорса
56.814887,31007,60.621344,Фрунзе (ул. Белинского)
56.818789,31008,60.61996,Большакова (ул. Белинского)
56.855644,31013,60.604262,ДК железнодорожников
56.857236,31014,60.606812,Ж/д вокзал
56.834498,31016,60.6121,Центральная гостиница (ул. Розы Люксембург)
56.831571,31017,60.613166,Федерация профсоюзов (ул. Розы Люксембург)
56.827962,31018,60.613648,Куйбышева (ул. Розы Люксембург)
56.81823,31020,60.613162,Музей Бажова
56.814523,31021,60.614583,Трамвайный парк (ул. Чапаева)
56.813938,31022,60.621514,Фрунзе (ул. Белинского)
56.809423,30928,60.623117,Щорса
56.804877,30929,60.625804,Авиационная
56.800453,30930,60.630113,Саввы Белых
56.797216,30931,60.635794,Шварца
56.791752,30689,60.642363,Самолётная
56.78637,30690,60.636507,Межевая
56.783739,30691,60.633665,Павлодарская
56.781162,30692,60.630881,Кварцевая
56.777339,30693,60.626753,Южный проезд
56.866631,31442,60.643171,Горбольница №7
56.863403,31443,60.653014,Данилы Зверева
56.860985,31131,60.651974,Данилы Зверева (ул. Сулимова)
56.861885,31133,60.63821,Менделеева
56.862383,31324,60.631647,Парк Хаус
56.861085,31331,60.624005,Уральская (ул. Смазчиков)
56.858941,31332,60.619756,Пионерская
56.857001,31280,60.608174,Ж/д вокзал
56.83127,30953,60.575728,Центральный стадион
56.828919,31147,60.569665,Институт связи
56.823047,31385,60.54714,Начдива Васильева
56.811757,30863,60.51191,Анатолия Муранова
56.810191,30864,60.507107,Госпиталь ВОВ
56.809068,30865,60.499422,Клеверный пер.
56.804839,30866,60.494612,Ледовый дворец
56.800672,30867,60.494244,пос. Светлореченский
56.797861,31407,60.488336,Широкая речка
56.79774,31408,60.488455,Широкая речка
56.800012,30885,60.4947,пос. Светлореченский
56.806392,30886,60.495743,Ледовый дворец
56.809064,30887,60.499843,Клеверный пер.
56.810873,30888,60.509245,Госпиталь ВОВ
56.811991,30889,60.513134,Анатолия Муранова
56.819273,31395,60.538963,Новомосковская
56.823567,31396,60.547873,Начдива Васильева
56.825069,31503,60.551287,Репина
56.829784,30923,60.572365,Институт связи
56.831308,30924,60.57608,Центральный стадион
56.835499,31491,60.578636,Вечный Огонь
56.859307,31317,60.620734,Пионерская
56.861727,31318,60.625509,Уральская (ул. Смазчиков)
56.862182,31136,60.633106,Парк Хаус
56.861723,31137,60.639145,Менделеева
56.861002,31138,60.649397,Боровая
56.864005,31440,60.653113,Данилы Зверева
56.88508,30409,60.584768,Машиностроителей (ул. 22 Партсъезда)
56.884733,30410,60.577152,40 лет Октября
56.884214,30411,60.570738,Диагностический центр
56.884136,30412,60.562554,Лукиных
56.887631,30413,60.566296,Библиотека
56.890398,30414,60.569253,Донбасская
56.897554,30415,60.577875,Кировградская
56.900812,30418,60.594236,Победы
56.872303,30602,60.611257,Калининская
56.868683,30603,60.611536,Техучилище
56.863063,30604,60.611968,1-й км
56.859681,30605,60.61899,Пионерская
56.840698,30990,60.625389,Бажова
56.841424,30991,60.631404,Восточная
56.843597,30528,60.645218,Уральский федеральный университет
56.845374,30529,60.644543,Первомайская
56.860083,30593,60.618518,Пионерская
56.862923,30594,60.612046,1-й км
56.868438,30595,60.61162,Техучилище
56.871961,30596,60.611348,Калининская
56.878959,30438,60.610895,Педуниверситет
56.887595,30439,60.612133,Метро Уралмаш
56.888415,30440,60.608075,Кузнецова
56.892995,30441,60.613497,ДК Лаврова
56.89609,30442,60.606634,Ильича (ул. Победы)
56.899042,30443,60.598955,Индустрии
56.900518,30444,60.595115,Победы
56.902114,30446,60.583619,Уральских Рабочих
56.897619,30447,60.577878,Кировградская
56.890953,30448,60.56977,Донбасская
56.88812,30449,60.566743,Библиотека
56.883544,30450,60.562912,Лукиных
56.884107,30451,60.569864,Диагностический центр
56.884616,30452,60.576162,40 лет Октября
56.846739,31126,60.655158,Софьи Ковалевской
56.848116,31127,60.662371,Первомайская (ул. Студенческая)
56.850203,31128,60.661573,Студенческая (ул. Технологическая)
56.852023,31129,60.655597,Академическая
56.858435,31130,60.653714,Блюхера (ул. Данилы Зверева)
56.808193,31398,60.610047,Автовокзал
56.800649,31399,60.612157,Южная
56.795889,30916,60.615082,Самоцветный бульвар
56.795872,30917,60.621542,Бульвар Малахова
56.796222,30918,60.62816,ТЦ Дирижабль
56.791736,30656,60.643571,Самолётная (ул. Щербакова)
56.78693,30657,60.64812,Институт дерматологии
56.783592,30658,60.652575,Гончарный
56.782458,31459,60.661861,Дарвина
56.782929,31460,60.672422,Патриотов
56.781163,31449,60.6815,Сосновый Бор
56.786029,31450,60.673645,Дунайская
56.783975,31451,60.666937,Молодогвардейцев
56.782634,31452,60.662947,Дарвина
56.781871,30686,60.655271,Щербакова
56.784358,30687,60.651923,Широкий пер.
56.78753,30688,60.647872,Институт дерматологии
56.797297,30639,60.63316,Шварца
56.796602,30892,60.629616,ТЦ Дирижабль
56.795967,30893,60.619626,Бульвар Малахова
56.795983,30645,60.613391,Самоцветный бульвар
56.799372,31381,60.612806,Южная
56.806774,31382,60.610808,Автовокзал (ТРЦ Мегаполис)
56.83412,31122,60.600799,Храм Большой Златоуст
56.835187,31123,60.610722,Гостиница Центральная (ул. Малышева)
56.856744,31139,60.653845,ТЦ Современник
56.846639,31320,60.653676,Софьи Ковалевской
56.844058,31142,60.650031,Уральский федеральный университет (ул. Мира)
56.88317,30553,60.561465,Лукиных
56.880325,30967,60.558494,Сварщиков
56.875568,30554,60.553546,Автомагистральная
56.870524,30555,60.549096,Пехотинцев
56.865913,30556,60.549512,Бебеля
56.861159,30557,60.548645,Таганский ряд
56.856255,30558,60.5495,Фармацевтический колледж
56.853278,30559,60.552223,ТРЦ Карнавал
56.850192,30560,60.554952,Верх-Исетский рынок
56.846509,30561,60.558181,Колмогорова
56.840446,30562,60.563222,Кирова
56.839404,30563,60.570509,Крылова
56.838116,30564,60.575185,ВИЗ-бульвар
56.836966,30565,60.580712,Дворец Молодёжи
56.836176,30566,60.583341,пл. Коммунаров
56.837474,30567,60.59544,пл. 1905 года
56.839103,30568,60.610978,Театр Музкомедии
56.839856,30569,60.618161,Оперный театр
56.840106,30611,60.618097,Оперный театр
56.839111,30612,60.61071,Театр Музкомедии
56.83753,30613,60.595592,пл. 1905 года
56.836928,30614,60.588586,Сакко и Ванцетти
56.837017,30540,60.58084,Дворец Молодёжи
56.837962,30541,60.575873,ВИЗ-бульвар
56.839478,30542,60.570369,Крылова
56.841301,30543,60.561799,Кирова
56.845757,30544,60.558631,Колмогорова
56.850441,30545,60.554807,Верх-Исетский рынок
56.852588,30546,60.552924,ТРЦ Карнавал
56.856363,30547,60.549475,Фармацевтический колледж
56.861047,30548,60.548614,Таганский ряд
56.86501,30549,60.549659,Бебеля
56.870411,30550,60.549171,Пехотинцев
56.875663,30551,60.553713,Автомагистральная
56.87999,30552,60.55822,Сварщиков
56.808639,30927,60.610979,Автовокзал
56.773433,30694,60.632958,Походная
56.766501,30932,60.628098,Новинская
56.760873,30933,60.627303,Свердлесмаш
56.753137,30934,60.622643,Лифтостроительный завод
56.749893,30935,60.619447,Звонкий
56.74606,30936,60.615204,Новопашинский
56.743298,30937,60.611423,Дом Культуры
56.739559,30938,60.607406,Елизавет
56.739723,31611,60.607095,Елизавет
56.744179,30940,60.612844,Дом Культуры
56.746746,30941,60.616223,Новопашинский
56.750761,30942,60.62043,Звонкий
56.753874,30943,60.6235,Лифтостроительный завод
56.83563,30589,60.557309,Красноуральская
56.835416,30590,60.562795,Уралкабель
56.835187,30591,60.568637,ул. Мельникова
56.83554,30592,60.577243,Вечный Огонь
56.877882,30424,60.611931,Педуниверситет
56.881687,30426,60.633636,Ворошиловская
56.883345,30427,60.638636,Фронтовых Бригад
56.889789,30428,60.632041,Краснофлотцев
56.894261,30429,60.62697,Энтузиастов
56.897466,30597,60.623336,Войкова
56.900606,30598,60.618228,Фрезеровщиков
56.897807,30599,60.622872,Войкова
56.894656,30600,60.626445,Энтузиастов
56.890143,30434,60.631562,Краснофлотцев
56.883276,30435,60.638294,Фронтовых Бригад
56.881789,30436,60.633812,Ворошиловская
56.878279,30437,60.621301,Электриков
56.877909,30601,60.611679,Педуниверситет
56.836168,30615,60.580754,пл. Коммунаров
56.835822,30616,60.577151,Вечный Огонь
56.835242,30617,60.568167,ул. Мельникова
56.835455,30618,60.562712,Уралкабель
56.836565,30619,60.556458,Красноуральская
56.839372,30620,60.558349,Слесарей
56.791921,31108,60.462881,Сады (пос. Мичуринский)
56.789947,31109,60.479978,пос. Мичуринский (Школа)
56.790004,30883,60.482741,пос. Мичуринский
56.796639,30884,60.491435,Хрустальногорская
56.843051,30789,60.646324,Уральский федеральный университет
56.798476,30868,60.493756,2-й участок
56.796415,30869,60.491055,Хрустальногорская
56.790015,31157,60.480198,пос. Мичуринский (Школа)
56.851486,31681,60.641605,Блюхера
56.812675,30958,60.557865,Волгоградская
56.814288,30959,60.549849,Серафимы Дерябиной
56.81692,30960,60.542847,Ухтомская
56.818976,30961,60.538368,Новомосковская
56.823892,30962,60.542668,Плотников
56.828117,30963,60.544213,Металлургов (ул. Викулова)
56.830745,30964,60.54477,Викулова
56.836225,30965,60.547127,Татищева
56.869377,31080,60.539997,Надеждинская
56.833133,31087,60.552325,Венгерских Коммунаров
56.830572,31088,60.553299,Заводская (ул. Крауля)
56.829495,30955,60.561283,Токарей
56.824147,31089,60.561421,Репина (ул. Токарей)
56.818854,31090,60.558408,Черкасская
56.817249,31067,60.56311,ТЦ Буревестник
56.819972,30920,60.5587,Черкасская
56.827693,30921,60.561659,Репина (ул. Токарей)
56.836196,31069,60.562354,Уралкабель
56.863705,31074,60.540838,Теплоходный проезд
56.867517,31075,60.544974,Таватуйская
56.870321,31076,60.538091,Надеждинская
56.872965,31077,60.531597,Сортировочная (ул. Таватуйская)
56.797187,30891,60.631043,Метро Ботаническая
56.792074,30646,60.605357,Ювелирная
56.784945,30647,60.607314,Рижский пер.
56.77575,30648,60.612292,Сухоложская
56.76937,30649,60.614618,Вторчермет
56.761756,30894,60.612042,Поликлиника (ул. Симская)
56.756326,30895,60.609798,Общежитие (ул. Селькоровская)
56.749437,30896,60.607451,Станция Керамик
56.747242,30897,60.606519,Южная подстанция
56.73836,30898,60.599302,Сады (Полевской тракт)
56.707341,30899,60.565314,Сад Родничок
56.704325,30900,60.559346,Полеводство
56.696617,30901,60.538448,Колхозный двор
56.695781,30902,60.536383,17-й км Полевского тракта
56.694797,30903,60.52727,Зелёная
56.693002,31417,60.516657,Средняя
56.7132,31418,60.5121,с. Зелёный Бор
56.700762,31419,60.509234,Поворот на с. Зелёный Бор
56.692522,30904,60.516296,Средняя
56.68759,30905,60.516918,Горный Щит
56.692879,30907,60.517703,Средняя
56.694759,30908,60.528087,Зелёная
56.704706,30909,60.560412,Полеводство
56.707817,30910,60.566948,Сад Родничок
56.738621,30911,60.599715,Сады (Полевской тракт)
56.746153,30912,60.606351,Южная подстанция
56.749762,30913,60.607724,Станция Керамик
56.762125,30915,60.612346,Поликлиника (ул. Симская)
56.769539,30696,60.614731,Вторчермет
56.776381,30697,60.612208,Сухоложская
56.783465,30698,60.608915,Военная
56.785735,30699,60.607011,Рижский пер.
56.793034,30700,60.606614,Ювелирная
56.700923,31603,60.508998,Поворот на с. Зелёный Бор
56.70702,31604,60.496002,Экодолье
56.843534,31492,60.645334,Уральский федеральный университет (ул. Гагарина)
56.845917,31493,60.644433,Первомайская
56.851804,31494,60.640364,Блюхера
56.854436,30625,60.636932,Уральская (ул. Советская)
56.856665,30626,60.64174,Парковый пер.
56.858702,30627,60.645861,Июльская
56.855562,31575,60.574522,Готвальда (ул. Черепанова)
56.851623,31576,60.569761,Университет путей сообщения
56.854067,31682,60.550968,ТРЦ Карнавал
56.860844,31683,60.550405,Таганский ряд
56.869898,30484,60.552464,Пехотинцев
56.870519,30464,60.549276,Пехотинцев
56.848667,31580,60.566407,Юридический университет
56.8524,31581,60.57084,Университет путей сообщения
56.85497,31582,60.573948,Готвальда (ул. Черепанова)
56.856137,30749,60.586708,Стрелочников
56.857281,30750,60.598236,Вокзальная
56.856455,31684,60.60514,Ж/д вокзал
56.857934,30629,60.644064,Июльская
56.856199,30630,60.640532,Парковый пер.
56.853863,31499,60.63649,Советская (ул. Уральская)
56.850856,31500,60.641422,Блюхера
56.846901,31501,60.643809,Первомайская
56.834702,31685,60.648403,Педагогическая
56.856339,30535,60.605258,Ж/д вокзал
56.851195,30536,60.593831,Управление дороги
56.8454,30537,60.586231,Ельцина
56.843209,30538,60.583255,Папанина
56.841199,30539,60.580515,Шейнкмана
56.840276,30788,60.559686,Кирова
56.812767,30853,60.558474,Волгоградская
56.816663,30854,60.563205,ТЦ Буревестник
56.823251,30855,60.571314,Белореченская
56.826176,30856,60.57478,Гурзуфская
56.827189,30857,60.579032,Юго-Западная
56.829195,30858,60.584049,Московская
56.830696,30503,60.60047,Радищева
56.827233,30504,60.603927,Цирк
56.828591,30505,60.616379,Белинского (ул. Куйбышева)
56.798382,31173,60.628408,Метро Ботаническая
56.79758,31174,60.620667,Бульвар Малахова
56.79757,31175,60.611757,Фучика
56.796136,31048,60.610211,Шварца (ул. 8 Марта)
56.791536,31049,60.604916,Ювелирная
56.785609,31050,60.606767,Рижский пер.
56.782391,31051,60.609519,Завод РТИ
56.77946,31052,60.610692,Братская
56.776404,31053,60.611909,Сухоложская
56.772757,31054,60.611948,Ферганская
56.771951,31055,60.599549,Ляпустина
56.769348,31056,60.59613,Новосибирская (ул. Санаторная)
56.76557,31057,60.593578,Эскадронная
56.759025,31058,60.589157,Мусоргского
56.756951,31023,60.595867,Керамическая
56.759067,31024,60.589255,Мусоргского
56.765237,31025,60.593423,Эскадронная
56.768977,31026,60.595949,Новосибирская (ул. Санаторная)
56.771971,31027,60.599262,Ляпустина
56.772686,31028,60.611694,Ферганская
56.775936,31029,60.612163,Сухоложская
56.778902,31030,60.610981,Братская
56.782208,31031,60.609667,Завод РТИ
56.785253,31032,60.60705,Рижский пер.
56.791377,31033,60.604937,Ювелирная
56.796025,31034,60.610185,Шварца (ул. 8 Марта)
56.797545,31172,60.621,Бульвар Малахова
56.843436,31335,60.687817,Высоцкого
56.842973,31336,60.686306,Высоцкого
56.842123,31322,60.67744,Каменные палатки
56.84113,30726,60.658787,Комсомольская (ул. Малышева)
56.84022,30727,60.650679,Профессорская
56.837584,30730,60.631961,Трансагентство
56.836254,30731,60.620748,Дом Кино
56.772677,31337,60.610674,Ферганская
56.768053,31338,60.602397,Магазин Клён
56.758741,31340,60.587835,2-я Новосибирская
56.744098,31341,60.568843,Солнечный микрорайон
56.740453,31344,60.54361,Ритейл-парк Солнечный
56.739722,31345,60.543959,Ритейл-парк Солнечный
56.73857,31346,60.554232,ул. Нескучная
56.741663,31347,60.562555,ул. Любви
56.758799,31348,60.587945,2-я Новосибирская
56.765649,31349,60.5929,Эскадронная
56.769213,31350,60.595736,Санаторная
56.767977,31351,60.60228,Магазин Клён
56.772767,31352,60.611827,Ферганская
56.837403,30757,60.631739,Трансагентство
56.840329,30760,60.652937,Профессорская
56.841171,30761,60.660365,Комсомольская (ул. Малышева)
56.842011,31353,60.679144,Каменные палатки
56.836317,31593,60.848911,Новосвердловская ТЭЦ
56.835357,31594,60.838564,Сад Вирусолог
56.839287,31595,60.831897,Пост №1
56.839305,31596,60.8133,Сад Орбита
56.839329,31597,60.788703,Росинка №2 (по требованию)
56.839347,31598,60.769601,Росинка
56.839731,31599,60.761847,Сады
56.843894,31600,60.728109,Развилки (ул. Высоцкого)
56.843334,31602,60.69593,Кировский оптовый рынок
56.842973,31584,60.687265,Высоцкого
56.844722,31585,60.70501,пос. Пески
56.843872,31586,60.727786,Развилки (ул. Высоцкого)
56.839584,31587,60.762813,Сады
56.839257,31588,60.770343,Росинка
56.83924,31589,60.787767,Росинка №2 (по требованию)
56.839215,31590,60.813846,Сад Орбита
56.838948,31591,60.832023,Пост №1
56.895555,30431,60.638415,Эльмаш
56.896383,30432,60.632599,Донская
56.894642,30433,60.627476,Энтузиастов
56.896806,30430,60.633969,Донская
56.804337,31370,60.504954,НПЦ Онкология
56.806241,31371,60.505019,Соболева
56.825822,31119,60.567215,Гурзуфская (ул. Посадская)
56.842121,31372,60.595911,Драмтеатр
56.845073,31373,60.588573,Ельцина
56.850323,31374,60.592906,Управление дороги
56.851987,31364,60.594773,Управление дороги
56.845169,31365,60.587656,Ельцина
56.840444,31366,60.597784,Драмтеатр
56.82471,31148,60.566998,Гурзуфская (ул. Посадская)
56.810101,31367,60.507979,Госпиталь ВОВ
56.806105,31368,60.504785,Соболева
56.804044,31369,60.505464,НПЦ Онкология
56.886107,30968,60.597443,пл. 1 Пятилетки
56.888078,30969,60.61373,Метро Уралмаш
56.894003,30970,60.614501,ДК Лаврова
56.901523,30971,60.61425,Фрезеровщиков
56.905469,30972,60.613804,Индустрии (Космонавтов проспект)
56.910597,30973,60.612567,Ломоносова (Космонавтов проспект)
56.922816,30974,60.612815,Радиостанция
56.932662,30975,60.615681,Союзная
56.938489,30976,60.615355,Проезжая (ул. Берёзовая)
56.938932,30977,60.669072,пос. Ягодный
56.938136,30978,60.657812,Окружное кладбище
56.93917,30979,60.669407,пос. Ягодный
56.938269,30980,60.615454,Проезжая (ул. Берёзовая)
56.931766,30981,60.615076,Союзная
56.921872,30982,60.612356,Радиостанция
56.911332,30983,60.612102,Ломоносова (Космонавтов проспект)
56.905924,30984,60.613424,Индустрии (Космонавтов проспект)
56.899989,30985,60.614119,Фрезеровщиков
56.892544,30986,60.613954,ДК Лаврова
56.887354,30456,60.6124,Метро Уралмаш
56.775295,31446,60.593101,Дорожная
56.772375,31447,60.589131,Палисадная
56.773082,31703,60.5978,Зенитчиков
56.764589,31704,60.59127,Умельцев
56.763063,31711,60.567418,Городская
56.762328,31712,60.573426,Ротная
56.764141,31713,60.587984,Умельцев
56.769855,31714,60.595741,Санаторная
56.773407,31715,60.597142,Зенитчиков
56.772332,31436,60.589196,Палисадная
56.775713,31437,60.593995,Дорожная
56.780752,31438,60.596802,Московская (ул. Патриса Лумумбы)
56.781947,31439,60.606993,Титова
56.799698,31800,60.612993,Южная
56.816499,30499,60.589143,Дворец Спорта
56.818271,30500,60.588599,Посадская (ул. Московская)
56.825134,30501,60.586242,Куйбышева (ул. Московская)
56.828819,30502,60.585096,Московская
56.829032,30514,60.624684,Дом художника
56.828764,30515,60.617628,Белинского (ул. Куйбышева)
56.827253,30516,60.603777,Цирк
56.830657,30517,60.599543,Радищева
56.828498,30518,60.585127,Московская
56.825659,30519,60.585993,Куйбышева (ул. Московская)
56.818121,30520,60.588584,Посадская (ул. Московская)
56.789294,30812,60.515145,Павла Шаманова
56.785067,30818,60.523037,Анатолия Мехренцева
56.873017,31285,60.611542,Калининская
56.878723,31286,60.61116,Педуниверситет
56.885006,31287,60.614737,Краснофлотцев (Космонавтов проспект)
56.886473,31354,60.592631,пл. 1 Пятилетки
56.891056,31355,60.59097,Дом пионеров
56.893984,31356,60.590137,Орджоникидзе
56.898082,31188,60.591413,Калинина
56.901208,31189,60.595427,Победы
56.90456,31190,60.598492,Восстания
56.90763,31191,60.597606,Ломоносова (ул. Коммунистическая)
56.909238,31192,60.593437,Бакинских Комиссаров (ул. Коммунистическая)
56.909741,31272,60.592507,Коммунистическая
56.909014,31196,60.593817,Бакинских Комиссаров (ул. Коммунистическая)
56.906833,31197,60.597318,Ломоносова (ул. Коммунистическая)
56.903967,31198,60.59877,Восстания
56.900114,31199,60.59382,Победы
56.89711,31200,60.589963,Калинина
56.892534,31357,60.590465,Больница
56.886383,30457,60.591554,пл. 1 Пятилетки
56.886579,31275,60.613614,Метро Уралмаш
56.878777,31276,60.610582,Педуниверситет
56.885513,30458,60.58582,Церковь Рождества Христова
56.885234,31502,60.57654,40 лет Октября
56.887921,31185,60.578341,Хмелёва
56.890414,31186,60.58154,бульвар Культуры
56.895657,31187,60.588269,Орджоникидзе (ул. 40 лет Октября)
56.71401,31605,60.486324,Зелёный Бор-2
56.721631,31606,60.429838,Шиловский  кордон
56.712928,31607,60.27754,с. Верхнемакарово
56.721589,31608,60.430198,Шиловский  кордон
56.714059,31609,60.485984,Зелёный Бор-2
56.914953,31475,60.578761,Кирпичный завод (ул. Коммунистическая)
56.904002,31471,60.599657,Восстания
56.902574,31472,60.603371,Индустрии (ул. Восстания)
56.899943,31473,60.611311,Ильича
56.902846,31307,60.625778,Шефская (ул. Фрезеровщиков)
56.90494,31308,60.6322,Таганская
56.902105,31309,60.635414,Войкова (ул. Таганская)
56.898291,31310,60.639737,Красных Командиров
56.899395,31474,60.646373,Ползунова
56.897161,30497,60.641211,Баумана
56.901016,30498,60.636842,Красных Командиров
56.905065,30453,60.631045,Таганская
56.903135,31328,60.624167,Шефская (ул. Фрезеровщиков)
56.90758,31329,60.619784,Совхозная
56.9006,31461,60.613458,Проспект Космонавтов
56.901667,31462,60.606018,Стахановская
56.794324,30640,60.634597,Крестинского
56.792929,30641,60.633207,Родонитовая
56.792483,30642,60.628613,Тбилисский бульвар
56.79254,30643,60.621227,Бульвар Малахова (ул. Родонитовая)
56.792527,30644,60.616379,Ботаническая
56.76853,31448,60.58765,Окраинная
56.768565,31435,60.587748,Окраинная
56.795489,30701,60.614148,Самоцветный бульвар
56.792633,30702,60.615388,Ботаническая
56.792475,30703,60.622949,Бульвар Малахова (ул. Родонитовая)
56.792417,30704,60.627114,Тбилисский бульвар
56.792571,30705,60.631558,Родонитовая
56.795004,30706,60.633539,Крестинского
56.843986,31125,60.650546,Уральский федеральный университет (ул. Мира)
56.847431,31323,60.657306,Комсомольская (ул. Первомайская)
56.824376,30720,60.699331,40 лет ВЛКСМ (Сибирский тракт)
56.833909,30722,60.694356,Заводоуправление
56.835189,30723,60.684239,Супермаркет Кировский
56.837554,30724,60.680339,Сыромолотова
56.841225,30725,60.6789,Каменные палатки
56.856995,30739,60.571584,3 Интернационала
56.857617,30740,60.566107,Черепанова
56.856916,30741,60.5533,Заречный
56.863196,30742,60.55941,Софьи Перовской
56.867091,30743,60.558517,Школа (ул. Пехотинцев)
56.862588,30744,60.559358,Софьи Перовской
56.857333,30746,60.5562,Заречный
56.857524,30747,60.564289,Черепанова
56.856526,30748,60.573387,3 Интернационала
56.841485,30762,60.678683,Каменные палатки
56.837797,30763,60.680117,Сыромолотова
56.835089,30764,60.685211,Супермаркет Кировский
56.834096,30765,60.694271,Заводоуправление
56.824507,30767,60.698826,40 лет ВЛКСМ (Сибирский тракт)
56.758004,31708,60.53901,17-я Мехколонна
56.760011,31709,60.545449,Европейская
56.763582,31710,60.549923,Мостовая
56.84801,30622,60.611239,ТЮЗ
56.848828,30623,60.61785,Луначарского (ул. Шевченко)
56.851828,30624,60.6315,Библиотека им. Крапивина
56.860767,31702,60.648026,Боровая
56.85378,30631,60.635298,Уральская (ул. Советская)
56.760056,31707,60.544342,Европейская
56.890424,31577,60.483484,Полюсная
56.889807,31578,60.475283,пос. 7 Ключей
56.890302,31579,60.482342,Полюсная
56.756821,31583,60.595497,Керамическая
56.828796,31397,60.544408,Металлургов (ул. Викулова)
56.831047,31165,60.545857,Викулова
56.829928,30922,60.563132,Токарей
56.82971,30954,60.568134,Институт связи
56.830202,31159,60.5605,Токарей
56.830796,31160,60.551209,Заводская (ул. Крауля)
56.830517,31383,60.544607,Викулова
56.828382,31384,60.544154,Металлургов (ул. Викулова)
56.832264,31490,60.525807,Радиоколледж
56.831697,31164,60.53566,Крауля (ул. Рабочих)
56.832195,31120,60.584318,ТЦ Алатырь (ул. Малышева)
56.832975,31121,60.590573,Театр Волхонка
56.835064,31143,60.608271,Горького
56.833915,31144,60.59804,Храм Большой Златоуст
56.833168,31145,60.591385,Театр Волхонка
56.866271,30771,60.532401,Техническая
56.868522,30772,60.526905,Школа им. Рахманинова
56.871426,30773,60.520653,Ватутина
56.87381,30774,60.518076,Маневровая
56.877216,30775,60.513383,Расточная
56.878853,30776,60.509659,Кишинёвская
56.881265,30777,60.50377,Дружининская
56.883533,30778,60.498117,7 Ключей
56.881543,30779,60.50298,Дружининская
56.879073,30780,60.509012,Кишинёвская
56.877617,30781,60.512589,Расточная
56.874061,30782,60.517565,Маневровая
56.871363,30783,60.520667,Ватутина
56.868912,30784,60.525885,Школа им. Рахманинова
56.866284,30785,60.532279,Техническая
56.864648,30786,60.536944,ДК ВОС
56.86361,30787,60.539931,Теплоходный проезд
56.835642,30998,60.582105,пл. Коммунаров
56.83254,30999,60.583394,ТЦ Алатырь (ул. Московская)
56.829829,31255,60.584725,Московская
56.828781,31728,60.675277,ТРЦ Комсомолл
56.827413,31729,60.682734,Комсомольский микрорайон
56.823854,31730,60.696139,ЖБИ
56.817284,31731,60.730575,Тубсанаторий (Дублер Сибирского тракта)
56.808418,31732,60.768452,Союз
56.771306,31733,60.868872,Поворот на пос. Исток
56.773141,31734,60.845673,Усадьба (по требованию)
56.775358,31735,60.834145,Реактивная
56.774074,31736,60.817342,пос. Кольцово
56.773912,31737,60.816527,пос. Кольцово
56.775512,31738,60.833149,Реактивная
56.773074,31739,60.846355,Усадьба (по требованию)
56.771586,31740,60.871021,Поворот на пос. Исток
56.780057,31741,60.879877,Главная (пос. Исток)
56.778005,31742,60.89391,пос. Исток
56.781383,31743,60.881177,Главная (пос. Исток)
56.809173,31744,60.766145,Союз
56.824054,31745,60.696187,ЖБИ
56.827702,31717,60.682554,Комсомольский микрорайон
56.838389,31405,60.633259,Малышева (ул. Восточная)
56.829405,31539,60.56856,Институт связи
56.788608,30870,60.480839,пос. Мичуринский
56.783851,30871,60.471407,Сад Берёзка
56.772541,30872,60.466487,Сад Дружба
56.776062,30873,60.457522,Сад Дружба-3
56.779804,30874,60.447682,Сады (пос. Медный)
56.779137,31688,60.441279,ЕКАД (по требованию)
56.775224,31689,60.426432,Янтарный ключ
56.773269,31690,60.411285,Сад Визовец (пос. Медный)
56.774742,31691,60.404971,Медный-2 (остановка по требованию)
56.772792,31692,60.37696,пос. Медный
56.773272,31693,60.411071,Сад Визовец (пос. Медный)
56.775394,31694,60.427414,Янтарный ключ
56.77965,31695,60.448269,Сады (пос. Медный)
56.775966,31696,60.457653,Сад Дружба-3
56.77412,30881,60.467738,Сад Дружба
56.783502,30882,60.471335,Сад Берёзка
56.750735,31433,60.803384,Аэропорт Кольцово (из Кольцово)
56.857972,31434,60.605454,Ж/д вокзал
56.842563,30581,60.645537,Уральский федеральный университет
56.840214,30582,60.646401,Гагарина
56.840337,30583,60.652564,Профессорская
56.841046,30584,60.658819,Комсомольская (ул. Малышева)
56.841397,30585,60.678428,Каменные палатки
56.83747,30586,60.679973,Новгородцевой
56.835057,30587,60.684112,Сиреневый бульвар
56.834861,30521,60.691606,40 лет ВЛКСМ
56.835048,30522,60.68521,Сиреневый бульвар
56.836892,30523,60.6803,Новгородцевой
56.841643,30524,60.678398,Каменные палатки
56.841213,30525,60.659963,Комсомольская (ул. Малышева)
56.840341,30526,60.652269,Профессорская
56.840089,30527,60.646513,Гагарина
56.740138,30939,60.606725,Елизавет
56.784852,30919,60.50643,Академика Парина
56.643578,105858,60.578327,Цех механизации
56.645035,105859,60.56948,ОПХ
56.6433,105860,60.578905,Цех механизации
56.820848,31839,60.57513,Посадская
56.822218,31840,60.572819,Белореченская
56.828225,31841,60.568001,Репина (ул. Посадская)
56.851796,31330,60.65759,Академическая
56.850869,31141,60.649402,Мира (ул. Академическая)
56.82225,31842,60.571294,Белореченская
56.955161,31830,60.65188,Сады (пос. Садовый)
56.95693,31831,60.668355,Кирпичный завод
56.957432,31833,60.680765,Центр Культуры (пос. Садовый)
56.957916,31834,60.681649,Центр Культуры (пос. Садовый)
56.958596,31835,60.67408,пос. Садовый
56.95667,31836,60.667982,Кирпичный завод
56.955509,31837,60.653006,Сады (пос. Садовый)
56.829713,31041,60.624359,Дом художника
56.851469,30579,60.640562,Блюхера
56.759078,31523,60.296627,Чусовское озеро
56.760018,31524,60.302607,Лесничество (Чусовской тракт)
56.769669,31525,60.311242,Сад Визовец
56.772024,31526,60.32413,14-й км Чусовского тракта
56.774484,31527,60.329158,Сад Берёзка (Чусовской тракт)
56.780466,31528,60.3416,12-й км Чусовского тракта
56.789441,31529,60.3487,Кордон Берёзовый ключ
56.794222,31530,60.36271,10-й км Чусовского тракта
56.798282,31531,60.375305,9-й км Чусовского тракта
56.802328,31532,60.39649,8-й км Чусовского тракта
56.810393,31533,60.413635,6-й км Чусовского тракта
56.816506,31534,60.426958,5-й км Чусовского тракта
56.81458,31535,60.436941,4-й км Чусовского тракта
56.817431,31536,60.464648,Парковый кордон
56.820309,31537,60.481317,Сад Запад
56.82021,31538,60.492387,Сад Госуниверситет
56.821004,31540,60.497077,Лесхоз
56.817391,31543,60.464488,Парковый кордон
56.814647,31544,60.436683,4-й км Чусовского тракта
56.810387,31546,60.41356,6-й км Чусовского тракта
56.802271,31547,60.396072,8-й км Чусовского тракта
56.798171,31548,60.375008,9-й км Чусовского тракта
56.794161,31549,60.362508,10-й км Чусовского тракта
56.789515,31550,60.348989,Кордон Берёзовый ключ
56.780593,31551,60.341686,12-й км Чусовского тракта
56.774544,31552,60.329195,Сад Берёзка (Чусовской тракт)
56.771963,31553,60.324477,14-й км Чусовского тракта
56.791959,31158,60.616167,Ботаническая
56.814208,31362,60.571162,Ясная (ул. Шаумяна)
56.780746,30659,60.656216,Уктус
56.777343,30660,60.662391,Каменный ручей
56.773145,30661,60.667763,Прониной
56.770534,30662,60.669245,Артиллерийский институт
56.765117,30663,60.671575,Садовая
56.761832,30664,60.671684,Станция Садоводства
56.753406,30665,60.676292,Нижнеисетск
56.748949,30666,60.680973,Инженера Алиева
56.746791,30667,60.688741,Димитрова
56.749409,30668,60.69295,Косарева
56.753121,30669,60.6961,ДК Химмаш
56.754106,30670,60.700856,Бородина
56.756763,30671,60.707929,Инженерная
56.761295,30672,60.703667,Дагестанская
56.761193,30673,60.701911,Химмаш
56.755421,30674,60.706226,Инженерная
56.754673,30675,60.70262,Бородина
56.752327,30676,60.694375,ДК Химмаш
56.746796,30677,60.687241,Димитрова
56.749701,30678,60.680384,Инженера Алиева
56.753836,30679,60.676013,Нижнеисетск
56.762254,30680,60.672014,Станция Садоводства
56.765964,30681,60.671239,Садовая
56.769856,30682,60.669681,Артиллерийский институт
56.773904,30683,60.667231,Прониной
56.77661,30684,60.663878,Каменный ручей
56.780227,30685,60.657105,Уктус
56.806867,31358,60.590958,Шаумяна
56.80933,31359,60.584572,Хасановская
56.811836,31360,60.577966,Чкалова (ул. Шаумяна)
56.814996,31361,60.569297,Ясная (ул. Шаумяна)
56.900092,31519,60.609828,Ильича
56.895381,31520,60.604998,Школа (ул. Ильича)
56.891857,31521,60.600472,Библиотека (ул. Ильича)
56.888935,31522,60.59672,Краснознамённая
56.813115,30992,60.558123,Волгоградская
56.828993,31000,60.583416,Московская
56.827168,31001,60.578782,Юго-Западная
56.826137,31002,60.574449,Гурзуфская
56.823164,31003,60.57112,Белореченская
56.81647,31004,60.562892,ТЦ Буревестник
56.861644,31686,60.547838,Таганский ряд
56.88595,30987,60.594537,пл. 1 Пятилетки
56.805142,30637,60.646013,Базовый пер
56.80231,30708,60.648412,ТЦ Леруа Мерлен
56.802338,30636,60.648482,ТЦ Леруа Мерлен
56.80303,30638,60.647394,ТЦ Леруа Мерлен
56.767229,30695,60.627633,Новинская
56.862906,31283,60.612306,1-й км
56.86873,31284,60.611864,Техучилище
56.870697,31641,60.61035,Космонавтов (ул. Артинская)
56.866682,31643,60.58266,Звезда
56.863411,31644,60.574705,Центр культуры Стрела
56.8664,31645,60.56111,Школа (ул. Пехотинцев)
56.869573,31646,60.552843,Пехотинцев
56.869911,31639,60.597276,Артинская
56.870681,31640,60.610717,Космонавтов (ул. Артинская)
56.867474,31278,60.61136,Техучилище
56.8622,31279,60.611902,1-й км
56.826229,31716,60.688382,ЖБИ
56.834379,31718,60.670106,Новгородцевой (ул. Егоршинский подход)
56.839334,31719,60.66887,Развилки
56.841291,31722,60.672932,Высоцкого
56.839136,31723,60.669278,Развилки
56.834574,31724,60.670491,Новгородцевой (ул. Егоршинский подход)
56.831594,31725,60.677048,Школа (ул. Новгородцевой)
56.828107,31726,60.682831,Медицинский колледж
56.826562,31042,60.603402,Цирк
56.822497,31043,60.604903,Академия при Президенте РФ
56.817832,31044,60.606696,Большакова
56.813573,31045,60.608197,Фрунзе (ул. 8 Марта)
56.805781,31046,60.611006,Автовокзал
56.800572,31047,60.612402,Южная
56.769427,31333,60.61448,Вторчермет
56.800656,31035,60.6126,Южная
56.806244,31036,60.610906,Автовокзал
56.813617,31037,60.608248,Фрунзе (ул. 8 Марта)
56.817958,31038,60.606711,Большакова
56.822356,31039,60.605024,Академия при Президенте РФ
56.826763,31334,60.603395,Цирк
56.812694,31290,60.558306,Волгоградская
56.902372,31194,60.567958,Парк Победы
56.902271,31195,60.584079,Уральских Рабочих
56.88409,30487,60.57066,Диагностический центр
56.88475,30488,60.578825,40 лет Октября
56.885258,30489,60.585109,НИИ Тяжмаш
56.88584,30490,60.593009,УЗТМ
56.887361,30491,60.615094,Кинотеатр Заря
56.889673,30492,60.621867,Бабушкина
56.889156,31201,60.632508,Краснофлотцев
56.883742,31202,60.639951,Фронтовых Бригад
56.884825,31203,60.64473,Электроремонтная
56.879792,31204,60.650436,Шефская
56.874359,31205,60.659491,Эльмашевский рынок
56.871209,31206,60.664979,Строительный двор
56.868173,31207,60.670107,Ремзавод
56.854176,31208,60.673259,Дом отдыха Шарташ
56.842707,31176,60.69571,Кировский оптовый рынок
56.854633,31177,60.673467,Дом отдыха Шарташ
56.869119,31178,60.668732,Ремзавод
56.872166,31179,60.663559,Строительный двор
56.875397,31180,60.657883,Эльмашевский рынок
56.880232,31181,60.650127,Шефская
56.88405,31182,60.64579,Электроремонтная
56.883976,31183,60.638805,Фронтовых Бригад
56.889215,31184,60.632865,Краснофлотцев
56.891601,30454,60.626926,Дворец культуры
56.889449,30455,60.620621,Бабушкина
56.88473,30459,60.576112,40 лет Октября
56.90225,31193,60.583613,Уральских Рабочих
56.766379,30875,60.464531,Полигон
56.762284,30876,60.46292,Просека
56.757808,30877,60.451578,Лесное кладбище
56.762431,30878,60.463044,Просека
56.766256,30879,60.464549,Полигон
56.887403,30989,60.607726,Кузнецова
56.898227,31510,60.508567,Монтажников (конечная)
56.890009,31511,60.521221,Монтажников
56.887115,31465,60.526113,Монтажников (ул. Расточная)
56.882292,31466,60.519473,Расточная (ул. Ангарская)
56.835163,31512,60.561799,Уралкабель
56.784015,31517,60.6673,Молодогвардейцев
56.779308,31518,60.697862,ЖК Светлый
56.77934,31504,60.697764,ЖК Светлый
56.782373,31505,60.682067,Алтайская
56.883472,31467,60.521302,Расточная (ул. Ангарская)
56.890173,31509,60.52096,Монтажников
56.762902,31790,60.807511,Докер
56.762072,31791,60.816393,Бахчиванджи (ул. Испытателей)
56.756421,31792,60.755778,Терминал Чкаловский
56.761025,31793,60.75223,Гипермаркет Сима-Ленд
56.764842,31794,60.743447,Альпинистов (по требованию)
56.756356,31788,60.755589,Терминал Чкаловский
56.760302,31789,60.819671,Станция Кольцово
56.85803,31496,60.63098,Учителей (ул. Уральская)
56.861961,31497,60.632463,Парк Хаус
56.857542,31498,60.630608,Учителей (ул. Уральская)
56.811067,31282,60.633389,ЦПКиО (ул. Щорса)
56.914272,31288,60.609726,Веер
56.912517,31289,60.597704,Ярославская
56.912495,31273,60.598257,Ярославская
56.914048,31274,60.609964,Веер
56.872393,31277,60.61099,Калининская
56.809949,31281,60.624171,Щорса
56.858005,31775,60.376087,Палкинский Торфяник
56.855253,31776,60.382736,Садовая (по требованию)
56.846176,31777,60.383228,Палкинский торфяник (ул. Московская по требованию)
56.833326,31778,60.386191,Поворот на пос. Палкинский Торфяник (по требованию)
56.832856,31779,60.390906,Гора Хрустальная (по требованию)
56.837876,31780,60.419562,Сад Каменушка (по требованию)
56.829616,31782,60.455077,11-й км Московского тракта
56.827999,31783,60.463792,Западная фильтровальная станция
56.826401,31784,60.479261,Пост ГАИ
56.821983,31765,60.499735,Лесхоз
56.826469,31766,60.478991,Пост ГАИ
56.828001,31767,60.464286,Западная фильтровальная станция
56.829602,31768,60.454299,11-й км Московского тракта
56.830921,31769,60.445027,Стрельбище Динамо
56.837883,31770,60.419097,Сад Каменушка (по требованию)
56.832081,31771,60.393616,Гора Хрустальная (по требованию)
56.833499,31772,60.385444,Поворот на пос. Палкинский Торфяник (по требованию)
56.846112,31773,60.383293,Палкинский торфяник (ул. Московская по требованию)
56.855269,31774,60.383063,Садовая (по требованию)
56.86672,31135,60.633687,Учителей (ул. Вилонова)
56.851366,31140,60.65379,Академическая
56.790397,31153,60.506972,ТЦ Лента
56.800461,31156,60.505844,Резервная
56.802073,31110,60.495215,Тенистая
56.799998,31111,60.507059,Резервная
56.863376,31134,60.632943,Парк Хаус
56.748637,31476,60.678908,Инженера Алиева
56.745475,31477,60.663277,Спортбаза
56.740959,31478,60.655044,Сады (пос. Рудный)
56.721473,31479,60.63723,Рудный
56.706667,31480,60.620627,Опытный завод (пос. Рудный)
56.721934,31481,60.638438,Рудный
56.741504,31482,60.65567,Сады (пос. Рудный)
56.745507,31483,60.663564,Спортбаза
56.760719,31697,60.702496,Химмаш
56.765728,31843,60.553487,Патра
56.831708,31163,60.5317,Крауля
56.872381,31673,60.290748,Северка
56.871882,31674,60.295722,Горняков
56.860523,31672,60.295405,Переезд (Северка)
56.848029,31675,60.24616,Старые Решёты
56.838269,31670,60.231618,пос. Решёты
56.844132,31676,60.234819,Поворот на Решёты
56.834592,31677,60.295315,Водоканал
56.832516,31678,60.334341,По требованию (ул. Ново-Московский тракт)
56.831264,31679,60.389345,Гора Хрустальная
56.826007,31680,60.499952,Садовая (ул. Металлургов)
56.82627,31665,60.500451,Садовая (ул. Металлургов)
56.831189,31666,60.393712,Гора Хрустальная
56.832729,31667,60.334024,По требованию (ул. Ново-Московский тракт)
56.834475,31668,60.298246,Водоканал
56.844298,31669,60.234916,Поворот на Решёты
56.848003,31671,60.246228,Старые Решёты
56.895846,30474,60.502464,Хладокомбинат №3 (ул. Шувакишская)
56.860429,30483,60.551519,Таганский ряд
56.874701,30485,60.552938,Автомагистральная
56.879532,30486,60.557912,Сварщиков
56.893688,30496,60.641351,Спортивная
56.884211,30460,60.569692,Диагностический центр
56.882074,30461,60.560151,Донбасская (ул. Лукиных)
56.879896,30462,60.557876,Сварщиков
56.875446,30463,60.553259,Автомагистральная
56.816718,31762,60.543454,Ухтомская
56.81448,31763,60.549181,Серафимы Дерябиной
56.812427,31764,60.558501,Медгородок (по требованию)
56.812472,31759,60.55757,Медгородок (по требованию)
56.814635,31760,60.548814,Серафимы Дерябиной
56.882516,31463,60.545658,Завод Минвата
56.885188,31464,60.531972,Автопредприятие
56.887149,31468,60.527559,Монтажников (ул. Расточная)
56.88237,31469,60.545758,Завод Минвата
56.871654,31470,60.550035,Пехотинцев
56.857437,31814,60.552117,Заречный
56.884108,31815,60.562696,Лукиных
56.890813,31816,60.569867,Донбасская
56.902535,31306,60.589496,Гипермаркет Дом
56.899015,31818,60.598655,Индустрии
56.900806,31819,60.615501,Проспект Космонавтов
56.900328,31820,60.619837,Старых Большевиков
56.897705,31821,60.622813,Войкова
56.894186,31311,60.64139,Спортивная
56.891375,31312,60.635873,Шефская (ул. Краснофлотцев)
56.876744,31822,60.670773,Промышленный проезд
56.902244,31823,60.624986,Шефская (ул. Фрезеровщиков)
56.897581,31824,60.623378,Войкова
56.90092,31825,60.618339,Фрезеровщиков
56.896485,31826,60.605864,Ильича (ул. Победы)
56.899141,31827,60.598953,Индустрии
56.903828,31828,60.58676,Бакинских Комиссаров
56.890535,31829,60.569152,Донбасская
56.762437,31795,60.709401,Больница (ул. Дагестанская)
56.762386,31796,60.714956,Поликлиника (ул. Дагестанская)
56.762458,31797,60.714559,Поликлиника (ул. Дагестанская)
56.768074,31798,60.709373,Северный Химмаш
56.762437,31799,60.708033,Больница (ул. Дагестанская)
56.860726,30628,60.648627,Сулимова
56.847585,30634,60.608043,ТЮЗ
56.848056,30635,60.600407,Метро Динамо
56.847506,30621,60.601549,Метро Динамо
56.950448,31838,60.715437,Березит
56.867093,31564,60.73234,пос. Изоплит
56.869543,31565,60.734615,Детский санаторий
56.877065,31566,60.735466,Магазин
56.884935,31567,60.722243,Поворот на Изоплит
56.884149,31568,60.712295,Рыбаков
56.882252,31569,60.69527,Норильская
56.874927,31570,60.689913,Проезжая
56.872195,31571,60.685032,Дачная
56.861864,31572,60.663046,Сахалинская
56.854544,31555,60.659921,Центр культуры Урал
56.857489,31556,60.657398,Блюхера (ул. Студенческая)
56.872466,31557,60.685783,Дачная
56.875425,31558,60.690857,Проезжая
56.882493,31559,60.696462,Норильская
56.884073,31560,60.716863,Рыбаков
56.885411,31561,60.723973,Поворот на Изоплит
56.876667,31562,60.735323,Магазин
56.870052,31563,60.733933,Детский санаторий
56.878361,31316,60.614249,Педуниверситет (ул. Фронтовых Бригад)
56.878186,31326,60.621718,Электриков
56.881873,31327,60.634447,Ворошиловская
56.905508,31363,60.63325,Таганская
56.883157,31313,60.637577,Фронтовых Бригад
56.881766,31314,60.633478,Ворошиловская
56.878305,31315,60.619912,Электриков
56.89291,31304,60.572203,Белая башня
56.786897,31484,60.547017,Полесье
56.784836,31485,60.550766,ЖК Балтийский
56.782241,31486,60.555483,Михеева
56.856171,31166,60.605508,Ж/д вокзал
56.802061,31167,60.567088,Чкалова
56.799504,31168,60.563895,Парк Чкалова
56.905089,31574,60.723657,пос. Калиновский
56.885518,31573,60.722639,Поворот на Изоплит
56.667994,30906,60.472932,пос. Широкая Речка
56.83644,31099,60.540632,Плотников (ул. Татищева)
56.836599,31100,60.536345,Рабочих
56.836802,31101,60.530882,Разъезд
56.839336,31102,60.518869,Малый Конный
56.843823,31103,60.500417,Зелёный остров
56.839307,31104,60.518815,Малый Конный
56.836773,31105,60.530714,Разъезд
56.836571,31106,60.536136,Рабочих
56.836438,31107,60.539724,Плотников (ул. Татищева)
56.862719,31647,60.611187,Космонавтов (Мельковский пер.)
56.863532,31648,60.60163,Хладокомбинат НОРД
56.866881,31649,60.590955,Автоколонна
56.88655,31653,60.457482,пос.7 Ключей (Тагильский подход)
56.884378,31654,60.497919,Трамвайное кольцо
56.881529,31655,60.503275,Дружининская
56.879132,31656,60.509105,Кишинёвская
56.880966,31657,60.518408,Билимбаевская
56.866736,31658,60.584287,Звезда
56.866852,31659,60.591382,Автоколонна
56.863722,31660,60.600159,Хладокомбинат НОРД
56.859925,31661,60.612266,Космонавтов (ул. Завокзальная)
56.752077,31258,60.817084,Бахчиванджи
56.750737,31259,60.801346,Аэропорт Кольцово (из Кольцово)
56.767916,31260,60.78947,Сад Авиатор-5
56.773803,31261,60.791099,Сады (ул. Сибирский тракт)
56.78082,31404,60.790155,Поворот на УКЗ
56.779196,31231,60.795273,Трактовая
56.8643,30709,60.668686,Шарташ
56.820198,31610,60.554734,Черкасская
56.760103,30944,60.627252,Свердлесмаш
56.768279,30650,60.628451,Новинская
56.773103,30651,60.63262,Походная
56.809857,30948,60.622145,Щорса
56.819641,31612,60.556549,Черкасская
56.839184,30588,60.555465,ВИЗ
56.845823,30580,60.644304,Первомайская
56.842989,30995,60.644607,Уральский федеральный университет
56.841533,30996,60.631363,Восточная
56.841005,30997,60.62622,Бажова
56.835916,30844,60.555502,Красноуральская
56.836,30845,60.553353,Заводская
56.836263,30846,60.547073,Татищева
56.836025,30966,60.552517,Заводская
56.872266,31078,60.525484,Седова
56.870188,31079,60.530266,Сортировочная (ул. Седова)
56.866886,31081,60.546109,Таватуйская
56.839263,31086,60.553834,ВИЗ
56.768509,31339,60.59471,Санаторная
56.832039,31146,60.582336,ТЦ Алатырь (ул. Малышева)
56.831269,31161,60.543787,Викулова
56.831864,31162,60.534457,Крауля (ул. Рабочих)
56.834739,105764,60.78957,Технопарк Университетский
56.827455,31699,60.53402,Детский центр
56.827675,31700,60.530868,Ново-Московский тракт
56.827489,31701,60.519955,ТК Новомосковский
56.827476,31720,60.531153,Ново-Московский тракт
56.827428,31721,60.533868,Детский центр
56.83459,105770,60.789502,Технопарк Университетский
56.829904,30993,60.58477,Московская
56.831625,30994,60.584274,ТЦ Алатырь (ул. Московская)
56.835744,31254,60.58213,пл. Коммунаров
56.861676,30768,60.547611,Таганский ряд
56.863337,30769,60.540847,Теплоходный проезд
56.8647,30770,60.536902,ДК ВОС
56.842411,31378,60.632126,Восточная
56.678731,31634,60.580718,Станция Сысерть
56.637612,31635,60.593408,Шабры
56.679048,31636,60.581002,Станция Сысерть
56.82024,31541,60.491751,Сад Госуниверситет
56.863338,31637,60.575622,Центр культуры Стрела
56.867144,31638,60.583609,Звезда
56.759185,31785,60.732494,Альпинистов
56.764703,31786,60.743958,Альпинистов (по требованию)
56.76117,31787,60.751817,Гипермаркет Сима-Ленд
56.790378,31114,60.506517,ТЦ Лента
56.818834,31761,60.538844,Новомосковская
56.807258,31252,60.543265,Горбольница №6
56.802349,31253,60.546559,Начдива Онуфриева
56.801685,31210,60.548437,Начдива Онуфриева
56.827243,31211,60.604278,Цирк
56.828757,31212,60.618153,Белинского (ул. Куйбышева)
56.823349,31294,60.586692,Московская Горка
56.828149,31615,60.673532,Бычковой
56.820446,31513,60.576231,Посадская
56.784366,30654,60.634475,Павлодарская
56.867839,31441,60.653016,Авангард
56.903848,30445,60.58645,Бакинских Комиссаров
56.78155,31458,60.656194,Щербакова
56.830508,31068,60.56184,Токарей
56.741358,31342,60.561536,ул. Любви
56.738329,31343,60.553348,ул. Нескучная
56.782153,31444,60.608172,Титова
56.780871,31445,60.597261,Московская (ул. Патриса Лумумбы)
56.851311,30632,60.630316,Библиотека им. Крапивина
56.848713,30633,60.6164,Луначарского (ул. Шевченко)
56.763137,31706,60.549064,Мостовая
56.958307,31832,60.674441,пос. Садовый
56.87003,31642,60.598639,Артинская
56.898137,31305,60.578799,Кировградская
56.903539,31817,60.586882,Бакинских Комиссаров
56.868662,31650,60.526788,Школа им. Рахманинова
56.872175,31651,60.525445,Седова
56.890794,31652,60.488398,Белякова
56.892907,30421,60.613361,ДК Лаврова
56.887352,30422,60.607623,Кузнецова
56.887543,30423,60.612281,Метро Уралмаш
56.879003,30988,60.610825,Педуниверситет
56.831614,30847,60.544889,Викулова
56.828237,30848,60.544173,Металлургов (ул. Викулова)
56.823888,30849,60.542572,Плотников
56.819256,30850,60.537657,Новомосковская
56.817121,30851,60.542308,Ухтомская
56.814305,30852,60.549606,Серафимы Дерябиной
56.813387,30957,60.557868,Волгоградская
56.763321,31624,60.566494,Городская
56.765134,31625,60.556349,Патра
56.88847,31422,60.503252,Ангарская
56.854128,30736,60.604734,Азина
56.81627,31515,60.593297,Дворец Спорта
56.816753,31516,60.599191,Облсобес (ул. Большакова)
56.861186,31132,60.647634,Боровая
56.851126,31319,60.655748,Академическая
56.857231,30737,60.599805,Вокзальная
56.856005,30738,60.585385,Стрелочников
56.835414,31592,60.838801,Сад Вирусолог
56.769809,31554,60.311293,Сад Визовец
56.823633,31321,60.706132,Гулливер
56.877795,31325,60.612074,Педуниверситет (ул. Фронтовых Бригад)
56.780424,31487,60.558878,Академика Вонсовского
56.782697,31488,60.554746,Михеева
56.785877,31489,60.548965,ЖК Балтийский
56.839788,31421,60.564469,Кирова
56.901693,30416,60.583161,Уральских Рабочих
56.903737,30417,60.586625,Бакинских Комиссаров
56.899364,30419,60.598003,Индустрии
56.896427,30420,60.605645,Ильича (ул. Победы)
56.878222,30425,60.620753,Электриков
56.756232,30914,60.609919,Общежитие (ул. Селькоровская)
56.829056,30766,60.693491,ЖБИ
56.891951,30493,60.629339,Дворец культуры
56.854646,31495,60.635824,Советская (ул. Уральская)
56.802029,30828,60.586143,Волгоградская (ул. Амундсена)
56.798229,31155,60.512666,Рябинина
56.799452,31223,60.727086,Станция Лечебная
56.794857,31224,60.72609,10-й км
56.78904,31225,60.729677,11-й км
56.82036,31542,60.481123,Сад Запад
