stop_lat,stop_id,stop_lon,stop_name
54.90641,29074,73.3866,ГАИ
54.997727,29668,73.478482,Пожарная часть
54.957908,29140,73.317284,Аэропорт
54.950802,29730,73.44308,ДСК
54.92978,29292,73.290029,Агропром
54.897007,29497,73.306618,Механический завод
55.040941,29209,73.202497,Завод Металлист
55.001169,28440,73.40486,2-я Восточная
55.001209,29363,73.51813,Сады Фантазия
54.92294,29368,73.356455,ДРСУ
54.998399,29674,73.484211,ТЭЦ-5
54.950742,29709,73.443445,ДСК
54.948723,29436,73.173953,Микрорайон Входной
54.993822,29584,73.329655,1-я Рыбачья (по требованию)
54.996746,29585,73.326051,пос. Рыбачий-1
54.998811,29586,73.322264,пос. Рыбачий-2
55.001589,29587,73.317068,пос. Рыбачий-3
54.991652,29589,73.389167,Депутатская (по требованию)
54.994817,29590,73.396225,Школа (ул. Депутатская)
54.995739,29591,73.401799,Трикотажная фабрика
54.958674,29431,73.18712,пос. Приветная
54.958712,29432,73.187466,пос. Приветная
55.042648,29271,73.260801,пос. Ермак
55.022519,29085,73.500664,Поворот (в сторону с/т Проектировщик)
54.883617,29092,73.34611,Поворот (ул. Карьер)
54.885153,29093,73.335739,снт Маяк-2
54.885108,29094,73.335658,снт Маяк-2
54.883524,29095,73.345865,Поворот (ул. Карьер)
55.040338,29342,73.441611,Онкодиспансер
55.038726,29343,73.441086,Онкодиспансер
55.038707,29344,73.436048,Коттеджный поселок
55.038729,29345,73.430456,Спецшкола
55.038834,29178,73.42622,Спецшкола
55.030518,28927,73.416251,Школа №15
55.02696,28433,73.413382,21-я Амурская
55.023393,28928,73.415908,Багратиона
55.021586,28929,73.409499,Магазин Заря
55.023213,28930,73.400782,16-я Амурская (ул. 24-я Северная)
55.023321,28931,73.39262,7-я Амурская
55.023429,28932,73.384258,ПТСК
55.023555,28668,73.3748,24-я Северная (ул. Герцена)
55.023663,28669,73.367184,Орджоникидзе
55.024503,28414,73.360584,25-я Северная
55.024544,28415,73.352609,Мебельная фабрика (ул. 25-я Северная)
55.027187,28670,73.342554,пос. Рабочий
55.028378,29020,73.337023,Агрохимцентр
55.021915,29021,73.33875,Областная больница
55.018329,29022,73.339741,Санаторий Омский
55.01419,28534,73.326849,Дворец творчества
55.017721,28535,73.315308,Аграрный университет
55.021078,28536,73.307181,Телецентр
55.010958,28880,73.293312,Арена-Омск (ул. Лукашевича)
55.006399,28881,73.287108,Заречная
55.003985,28882,73.283658,бульвар Зелёный
55.000686,28883,73.279358,Автовокзал (ул. Лукашевича)
54.996693,28884,73.274734,проспект Комарова (ул. Лукашевича)
54.993003,28885,73.270563,Лукашевича
54.992809,28719,73.266544,Универсам (ул. Дианова)
54.994015,28720,73.259061,Лесной проезд (ул. Дианова)
54.994155,28721,73.256667,ОАЗИС
54.994636,28802,73.248481,Дианова
54.994974,28803,73.242705,Звёздная
54.995412,28804,73.235242,Комкова
54.995819,28805,73.224244,Дорстрой (ул. 2-я Солнечная)
54.996871,28806,73.217175,пос. Солнечный
54.996448,28781,73.21885,пос. Солнечный
54.995702,28782,73.227166,Дорстрой (ул. 2-я Солнечная)
54.995188,28783,73.237522,Комкова
54.994688,28784,73.246049,Звёздная
54.994433,28725,73.250391,Дианова
54.99403,28726,73.25726,ОАЗИС
54.993853,28727,73.260282,Лесной проезд (ул. Дианова)
54.993195,28728,73.265222,Универсам (ул. Дианова)
54.993997,28891,73.272,Лукашевича
54.996835,28892,73.275208,проспект Комарова (ул. Лукашевича)
55.001437,28893,73.28068,Автовокзал (ул. Лукашевича)
55.003832,28894,73.284112,бульвар Зелёный
55.006458,28895,73.287522,Заречная
55.010967,28896,73.293655,Арена-Омск (ул. Лукашевича)
55.02071,28559,73.307718,Телецентр
55.017109,28560,73.316479,Аграрный университет
55.014404,28561,73.325686,Дворец творчества
55.018235,29038,73.339862,Санаторий Омский
55.022659,29039,73.338658,Областная больница
55.028578,29040,73.337081,Агрохимцентр
55.026971,28684,73.342988,пос. Рабочий
55.024403,28423,73.352716,Мебельная фабрика (ул. 25-я Северная)
55.024452,28424,73.359363,25-я Северная
55.023569,28685,73.367771,Орджоникидзе
55.023428,28947,73.377393,24-я Северная (ул. Герцена)
55.023326,28948,73.385259,ПТСК
55.023222,28949,73.393282,7-я Амурская
55.023165,28950,73.39768,11-я Амурская (ул. 24-я Северная- временно)
55.023096,28951,73.402964,16-я Амурская (ул. 24-я Северная)
55.021776,28952,73.410424,Магазин Заря
55.023599,28953,73.416886,Багратиона
55.025677,28404,73.415089,Амурский рынок
55.028684,28955,73.414381,21-я Амурская
55.031157,28956,73.417309,Школа №15
55.03903,29338,73.42766,Спецшкола
55.038649,29339,73.437242,Коттеджный поселок
55.040393,29340,73.441673,Онкодиспансер
55.041112,29341,73.443792,Онкодиспансер
54.900529,29498,73.306988,База ОПС
54.907381,29499,73.310841,Межрайбаза (ул. Мельничная)
54.908918,29500,73.311681,Магазин (ул. Мельничная)
54.914254,29501,73.314602,Самарка
54.920596,29460,73.318536,Нефтебаза (ул. Мельничная)
54.924771,29461,73.319773,Сады Яблонька
54.929025,29462,73.321882,Школа №53
54.931916,29298,73.329335,Администрация Кировского округа
54.933338,29299,73.333738,Торговая
54.940471,29300,73.339288,Володарского
54.945822,29410,73.347947,Суворова
54.949539,29411,73.350099,Завод гражданской авиации
54.954707,29412,73.350036,Больница (ул. Суворова)
54.958245,29413,73.350084,По требованию (ул. Суворова)
54.967682,28743,73.353041,Парк Победы
54.973944,28523,73.382127,Магазин Голубой огонек
54.978207,28524,73.381181,Магазин Детский Мир
54.981471,28525,73.380468,пл. Ленина
54.9863,28526,73.377197,Дом Туриста
54.988948,28617,73.375077,Госпиталь
54.993729,28946,73.372385,ТК Флагман
54.994778,29502,73.37762,Булатова (по требованию)
54.996579,29503,73.379569,Центральный рынок
55.000184,29504,73.380424,Бутырский базар
55.002942,29505,73.388123,3-я Ремесленная (ул. Арктическая)
55.005029,29506,73.390676,Арктическая
55.00418,29507,73.397133,10-я Ремесленная
55.005923,28398,73.406328,6-я Восточная
55.009252,29508,73.40668,ЛДС им. Фетисова
55.013702,29509,73.405597,Школа №93
55.019346,29510,73.406486,Челюскинцев
55.026845,28954,73.413607,21-я Амурская
55.018895,29511,73.406179,Челюскинцев
55.013497,29512,73.405339,Школа №93
55.009142,29513,73.406633,ЛДС им. Фетисова
55.005408,28439,73.404854,6-я Восточная
55.005491,29514,73.395611,11-я Ремесленная
55.004742,29515,73.390249,Арктическая
55.00244,29516,73.387432,3-я Ремесленная (ул. Арктическая)
55.000131,29517,73.380294,Бутырский базар
54.996568,29518,73.379428,Центральный рынок
54.99486,29519,73.375199,Булатова
54.993935,28692,73.372256,Фрунзе
54.98939,28639,73.37445,Госпиталь
54.986109,28640,73.377086,Дом Туриста
54.98132,28693,73.380265,пл. Ленина
54.972865,28703,73.381319,Магазин Жемчужина
54.969328,28704,73.360774,ДОСААФ (ул. 3-я Островская)
54.967699,28705,73.352399,Парк Победы
54.957706,29406,73.349921,По требованию (ул. Суворова)
54.954437,29407,73.349876,Больница (ул. Суворова)
54.949426,29408,73.349971,Завод гражданской авиации
54.945667,29409,73.347515,Суворова
54.940632,29275,73.339342,Володарского
54.933529,29276,73.329107,АО Сибирский хлеб
54.933771,29277,73.325468,Школа №55
54.928748,29520,73.321598,Школа №53
54.925081,29521,73.319762,Сады Яблонька
54.920787,29522,73.318481,Нефтебаза (ул. Мельничная)
54.913883,29523,73.314282,Самарка
54.908502,29524,73.311339,Магазин (ул. Мельничная)
54.906257,29525,73.310111,Межрайбаза (ул. Мельничная)
54.907465,29526,73.3024,База хозтоваров
54.910732,29527,73.296887,База №10
54.915849,29528,73.289771,УПТК
54.915215,29529,73.283612,Стройплощадка 111
54.914988,29530,73.283321,Стройплощадка 111
54.915738,29531,73.289052,УПТК
54.910937,29532,73.296454,База №10
54.907717,29533,73.301884,База хозтоваров
54.901337,29534,73.307344,База ОПС
54.896952,29535,73.306271,Механический завод
54.917388,29600,73.436376,Строительный рынок Южный
54.915568,29601,73.43656,ПАТП-4
54.914153,28752,73.443317,Фрезерная
54.911375,28753,73.443032,Моторная
54.908445,28754,73.445296,Гашека
54.908488,28755,73.452164,Универсам (ул. Гашека)
54.908511,28756,73.455759,Поворотная (ул. Гашека)
54.910876,28757,73.457054,Сибирский проспект
54.914956,28758,73.457013,Школа №107
54.918006,29397,73.455594,Мини-рынок (проспект Сибирский)
54.922443,28382,73.449837,пос. Южный
54.933402,28383,73.435487,28-я Рабочая
54.935772,28384,73.432477,23-я Рабочая
54.938437,28385,73.429424,19-я Рабочая
54.943266,28386,73.424129,11-я Рабочая
54.947746,28387,73.419132,Омский Дом Дружбы
54.951292,28388,73.416009,ДК Рубин
54.955764,28389,73.415217,ПО Полёт
54.960692,28390,73.414636,ПО им. Баранова
54.967147,28391,73.413828,Лизы Чайкиной
54.972754,28392,73.412822,ПКиО им. 30 лет ВЛКСМ
54.972303,28519,73.41138,ПКиО им. 30 лет ВЛКСМ
54.971984,28520,73.405724,ПО Большевичка
54.971288,28521,73.39435,Степная
54.970807,28522,73.386474,Академия транспорта
54.991127,28527,73.371336,Главпочтамт
54.991797,28528,73.362903,КДЦ Маяковский
54.993623,28933,73.357909,По требованию (ул. Фрунзе)
54.985627,28934,73.338689,3-я Енисейская
54.983369,29236,73.331569,Строймаркет Новосёл
54.980222,29567,73.322658,11-й микрорайон
54.978522,29568,73.317765,Социальный рынок
54.976471,29569,73.311868,Конева
54.975546,29570,73.301909,Школа
54.978764,28799,73.295469,Берёзовая Роща
54.979694,28937,73.291566,Новая
54.971243,29146,73.281268,Мега
54.973114,29602,73.284058,Икеа
54.978426,28787,73.296056,Берёзовая Роща
54.978493,28788,73.302418,1-я Садовая
54.980999,28789,73.30612,12-й микрорайон
54.982807,28790,73.310144,проспект Комарова (ул. Дмитриева)
54.98479,28738,73.313985,Дмитриева
54.980821,28739,73.323254,11-й микрорайон
54.979312,28740,73.326709,ТЦ Континент
54.978119,28741,73.335036,Торговый город
54.97917,28942,73.338738,Торговый город
54.982543,28943,73.336568,Амбулатория
54.98432,29265,73.335725,Микрорайон Аванград
54.985501,28944,73.339198,3-я Енисейская
54.99304,28566,73.361106,Библиотека им. Пушкина
54.991148,28637,73.365774,КДЦ Маяковский
54.991003,28638,73.370941,Главпочтамт
54.974583,28694,73.381735,Магазин Голубой огонек
54.970642,28573,73.385049,Академия транспорта
54.971427,28574,73.397663,Степная
54.971892,28575,73.405258,ПО Большевичка
54.972181,28576,73.410214,ПКиО им. 30 лет ВЛКСМ
54.965909,28447,73.41296,Лизы Чайкиной
54.960387,28448,73.413622,ПО им. Баранова
54.955162,28449,73.414226,ПО Полёт
54.950254,28450,73.41614,ДК Рубин
54.94709,28451,73.41955,Омский Дом Дружбы
54.942701,28452,73.424384,11-я Рабочая
54.937853,28453,73.42991,19-я Рабочая
54.935576,28454,73.432513,23-я Рабочая
54.932625,28455,73.436254,28-я Рабочая
54.921301,28766,73.451047,пос. Южный
54.917589,28767,73.455929,Мини-рынок (проспект Сибирский)
54.913642,28768,73.456902,Школа №107
54.910471,28769,73.456964,Сибирский проспект
54.90857,28770,73.455173,Поворотная (ул. Гашека)
54.908535,28771,73.449575,Универсам (ул. Гашека)
54.908506,28772,73.44496,Гашека
54.911995,28773,73.443369,Моторная
54.914957,28774,73.441574,Фрезерная
54.9157,29603,73.436502,ПАТП-4
54.917391,29604,73.436704,Строительный рынок Южный
55.060642,28628,73.250511,Омский нефтеперерабатывающий завод
55.057085,28629,73.253284,ПО Нефтехимавтоматика
55.053661,28630,73.255952,Спецавтоматика
55.048775,28631,73.25841,ПАТП-7
55.041518,28632,73.26171,пос. Ермак
55.037416,28853,73.264975,пл. Лицкевича
55.033222,28854,73.268312,Магистральная
55.029463,28855,73.271113,Малунцева
55.028964,28856,73.278336,ДК им. Малунцева
55.028732,28555,73.285789,КДЦ Кристалл
55.026671,28556,73.291422,Технический университет
55.024703,28557,73.296804,Медицинская академия
55.022892,28558,73.301758,СибАДИ
55.023586,28537,73.300326,СибАДИ
55.025207,28538,73.295888,Медицинская академия
55.02693,28539,73.291169,Технический университет
55.028702,28972,73.28632,КДЦ Кристалл
55.02922,28870,73.277584,ДК им. Малунцева
55.029903,28871,73.271125,Малунцева
55.033611,28872,73.268175,Магистральная
55.037188,28873,73.265329,пл. Лицкевича
55.042063,28622,73.261449,пос. Ермак
55.043196,29225,73.260778,пос. Ермак
55.04851,28623,73.258979,ПАТП-7
55.053159,28624,73.256862,Спецавтоматика
55.057395,28625,73.253561,ПО Нефтехимавтоматика
55.061255,28626,73.254918,Поликлиника (проспект Губкина)
55.061107,28627,73.251652,Омский нефтеперерабатывающий завод
54.919748,28477,73.408541,ПО Иртыш
54.921312,28478,73.41627,ТПК (ул. Демьяна Бедного)
54.925465,28479,73.416285,Полторацкого
54.929074,28480,73.416374,6-я Чередовая
54.93187,28481,73.416461,3-я Чередовая
54.937044,28482,73.415069,Школьная
54.942689,28483,73.410819,Озеро Хасан
54.9429,28484,73.398551,Сибирский профессионально-педагогический колледж
54.947139,29252,73.387495,пл. Серова
54.941811,28745,73.383755,Рождественского
54.938353,28506,73.383007,Лобкова
54.938334,28467,73.383391,Лобкова
54.942207,28702,73.384182,Рождественского
54.94711,29253,73.387295,пл. Серова
54.944599,29254,73.395447,Артёма Избышева
54.942875,28489,73.397769,Сибирский профессионально-педагогический колледж
54.942709,28490,73.40974,Озеро Хасан
54.93744,28491,73.415017,Школьная
54.932725,28492,73.416422,3-я Чередовая
54.928576,28493,73.416299,6-я Чередовая
54.92475,28494,73.416226,Полторацкого
54.920606,28495,73.416228,ТПК (ул. Демьяна Бедного)
54.91977,28496,73.407537,ПО Иртыш
55.048301,28419,73.33072,ТК Лента (Красноярский тракт)
55.048766,28420,73.326636,Имени В. Бархатовой
55.04422,28421,73.324614,Имени О. Охрименко
55.044271,28678,73.318636,проспект Менделеева
55.04593,28908,73.311641,Кинотеатр Первомайский
55.046817,28909,73.305947,Белозёрова
55.047403,29043,73.292186,Поликлиника (ул. Энтузиастов)
55.047265,29044,73.283408,Школа №7
55.046187,29045,73.27503,Ромашка
55.044998,29046,73.27028,1-я Заводская
54.989778,28729,73.273061,Ватутина
54.987921,28730,73.276824,Восточная
54.990338,28731,73.282357,Путилова
54.992305,28732,73.28528,Кинотеатр Иртыш
54.993085,28733,73.28898,Школа милиции
54.990251,28734,73.294735,Студенческая
54.987576,28735,73.300165,"Жилой комплекс ""Кристалл"""
54.987734,28736,73.307115,Поворотная (ул. 70 лет Октября)
54.985727,28737,73.311801,Магазин (ул. 70 лет Октября)
54.974641,28742,73.340683,Таксопарк
54.954108,29136,73.340967,60 лет Победы
54.951858,29137,73.336872,Аэропорт местных линий
54.949003,29453,73.333637,Авиационная
54.94545,29274,73.338661,Поликлиника (ул. 12 Декабря)
54.940949,29655,73.338628,Володарского
54.931662,29278,73.321319,Учебный пункт
54.931876,29279,73.316619,3-я Кировская
54.932319,29280,73.308769,8-я Кировская
54.932539,29281,73.302729,1-я Автомобильная
54.931136,29282,73.296176,2-я Автомобильная
54.929723,29283,73.289582,Агропром
54.929961,29284,73.281358,Сельхозтехника
54.928778,29285,73.275939,Новостройка (ул. Семиреченская)
54.928429,29290,73.276814,Новостройка (ул. Семиреченская)
54.929978,29291,73.284559,Сельхозтехника
54.931007,29293,73.295755,2-я Автомобильная
54.932271,29294,73.301655,1-я Автомобильная
54.932345,29295,73.307667,8-я Кировская
54.931865,29296,73.316176,3-я Кировская
54.931636,29297,73.321929,Учебный пункт
54.946611,29301,73.336654,Поликлиника (ул. 12 Декабря)
54.949011,29143,73.333734,Авиационная
54.951241,29144,73.337374,Аэропорт местных линий
54.954363,29145,73.341442,60 лет Победы
54.975244,28706,73.34052,Таксопарк
54.978452,28707,73.3324,Торговый город
54.979049,28708,73.327758,ТЦ Континент
54.981121,28709,73.322815,11-й микрорайон
54.983709,28710,73.316774,70 лет Октября (по требованию)
54.986251,28711,73.310839,Дмитриева
54.988006,28712,73.30674,Поворотная (ул. 70 лет Октября)
54.988132,29266,73.299134,"Жилой комплекс ""Кристалл"""
54.989671,29267,73.296011,Студенческая
54.993244,28715,73.286618,Школа милиции
54.989679,28716,73.281301,Путилова
55.047244,29057,73.284364,Школа №7
55.047374,29058,73.292719,Поликлиника (ул. Энтузиастов)
55.047075,28905,73.300908,Лаптева
55.04649,28906,73.306936,Белозёрова
55.045729,28907,73.311836,Кинотеатр Первомайский
55.043686,28676,73.32005,проспект Менделеева
55.043506,28417,73.324408,Имени О. Охрименко
55.048366,28418,73.330599,ТК Лента (Красноярский тракт)
55.024792,29083,73.517774,снт Ивушка
55.022457,29084,73.509286,снт Проектировщик
55.029868,29183,73.497157,По требованию (пос. Степной)
55.033431,29086,73.495991,Воинская часть
55.039202,29087,73.492363,Карьер (пос. Степной)
55.043955,28918,73.487969,Развилка (в сторону пос. Загородный)
55.040035,28919,73.477173,Сады (в сторону пос. Загородный)
55.033959,28921,73.468073,Микрорайон Первокирпичный
55.033068,28922,73.463042,КЖБИ
55.033491,28923,73.453356,Детский сад (ул. Завертяева)
55.033888,28924,73.445393,Завертяева (по требованию)
55.034129,28925,73.440622,Станция Успешная
55.034719,28926,73.428866,Гаражи (ул. Завертяева)
55.031952,28671,73.328543,СибНИИСХоз
55.033626,28672,73.322788,Учхоз
55.035047,28878,73.309801,14-я Заозёрная
55.030416,28879,73.30765,7-я Заозёрная
55.024729,29184,73.305273,Школа №18
55.029306,28869,73.283803,КДЦ Кристалл
55.029024,29185,73.268039,Нефтезаводская
55.028953,29186,73.262891,ОмГУ
55.028864,29187,73.256569,Магазин Садко
55.028755,29188,73.248734,ДОК (проспект Мира)
55.028682,29189,73.243444,Социальный рынок (проспект Мира)
55.028543,29190,73.234436,Радиостанция
55.031396,29191,73.226118,Микрорайон Юбилейный
55.033594,29192,73.220588,Магазин (проспект Мира)
55.037239,29193,73.211645,ЗСЖБ-5
55.041026,29194,73.202397,Завод Металлист
55.044409,29195,73.194137,проспект Мира (по требованию)
55.045519,29196,73.189013,Поворот (ул. Загородная)
55.046793,29197,73.183879,Карьер (ул. Загородная)
55.050309,29198,73.178412,Песчаная
55.055207,29199,73.172714,Магазин (ул. Загородная)
55.058647,29200,73.169324,Загородная (по требованию)
55.061657,29201,73.166476,пос. Николаевка
55.061541,29202,73.166515,пос. Николаевка
55.058216,29203,73.16967,Загородная (по требованию)
55.054879,29204,73.172966,Магазин (ул. Загородная)
55.049576,29205,73.17947,Песчаная
55.04642,29206,73.184366,Карьер (ул. Загородная)
55.045727,29207,73.189472,Поворот (ул. Загородная)
55.043846,29208,73.195404,проспект Мира (по требованию)
55.037631,29210,73.21058,ЗСЖБ-5
55.03325,29211,73.22137,Магазин (проспект Мира)
55.031134,29212,73.226648,Микрорайон Юбилейный
55.028477,29213,73.236288,Радиостанция
55.028662,29214,73.24654,Социальный рынок (проспект Мира)
55.028724,29215,73.250962,ДОК (проспект Мира)
55.028824,29216,73.258204,Магазин Садко
55.028899,29217,73.263521,ОмГУ
55.028985,29218,73.269722,Нефтезаводская
55.024685,29219,73.305634,Школа №18
55.03027,28897,73.308048,7-я Заозёрная
55.034821,28898,73.310161,14-я Заозёрная
55.033394,28682,73.323235,Учхоз
55.031316,28683,73.330115,СибНИИСХоз
55.028636,29220,73.338035,Агрохимцентр
55.034621,28957,73.430217,Гаражи (ул. Завертяева)
55.034021,28958,73.441992,Станция Успешная
55.0338,28959,73.446438,Завертяева (по требованию)
55.033389,28960,73.454682,Детский сад (ул. Завертяева)
55.032998,28961,73.463879,КЖБИ
55.03469,28962,73.468287,Микрорайон Первокирпичный
55.039738,28964,73.476474,Сады (в сторону пос. Загородный)
55.043358,29100,73.489306,Развилка (в сторону пос. Загородный)
55.039591,29101,73.492017,Карьер (пос. Степной)
55.033479,29102,73.495997,Воинская часть
55.030845,29103,73.49705,По требованию (пос. Степной)
55.022589,29221,73.50019,Поворот (в сторону с/т Проектировщик)
55.021969,29222,73.507595,снт Проектировщик
55.024684,29105,73.517506,снт Ивушка
54.938359,29156,73.369479,Речной порт
54.934321,29308,73.366058,Авангард (по требованию)
54.932379,29157,73.368591,Ленинский районный суд
54.93352,29124,73.374262,Труда
54.934285,29125,73.378235,Котельникова
54.935777,28505,73.380961,Колледж транспортного строительства
54.946562,28657,73.386215,пл. Серова
54.952999,28658,73.387998,Хлебозавод (проспект Карла Маркса)
54.955682,28659,73.38742,Цирк
54.962988,28660,73.38588,Дом печати
54.969046,28661,73.383578,Академия транспорта
54.995277,28662,73.372596,Фрунзе
54.999336,28663,73.373106,Яковлева
55.003132,28664,73.373577,Завод им. Куйбышева
55.009499,28665,73.3744,7-я Северная (ул. Герцена)
55.014691,28666,73.375067,13-я Северная
55.018878,28667,73.375607,18-я Северная
55.023129,28434,73.418103,4-я Челюскинцев
55.018942,29060,73.421491,Школа №30
55.018681,29061,73.429184,Переезд (ул. 22 Партсъезда)
55.019097,29062,73.434035,Хлебозавод (ул. 22 Партсъезда)
55.019893,29063,73.443313,Столовая (ул. 22 Партсъезда)
55.01713,29064,73.444657,Криогенная техника
55.017735,29238,73.456557,ОмскГлавСнаб
55.018721,29239,73.459409,Сады Берёзка
55.018671,29240,73.459138,Сады Берёзка
55.017387,29241,73.455469,ОмскГлавСнаб
55.01739,29069,73.444649,Криогенная техника
55.019891,29070,73.442547,Столовая (ул. 22 Партсъезда)
55.019144,29071,73.433843,Хлебозавод (ул. 22 Партсъезда)
55.018706,29072,73.428739,Переезд (ул. 22 Партсъезда)
55.019661,28402,73.420407,Школа №30
55.022697,28403,73.418543,4-я Челюскинцев
55.02301,28686,73.375983,24-я Северная (ул. Герцена)
55.018292,28687,73.375375,18-я Северная
55.013763,28688,73.374791,13-я Северная
55.008201,28689,73.374077,7-я Северная (ул. Герцена)
55.00307,28690,73.373412,Завод им. Куйбышева
54.999605,28691,73.372979,Яковлева
54.969993,28695,73.382949,Академия транспорта
54.963647,28696,73.385508,Дом печати
54.956474,28697,73.387011,Цирк
54.952372,28698,73.387881,Хлебозавод (проспект Карла Маркса)
54.948407,28699,73.386833,пл. Серова
54.937977,28746,73.381941,ТЦ Авангард
54.935567,28468,73.380794,Колледж транспортного строительства
54.934506,29133,73.379183,Котельникова
54.933275,29134,73.372836,Труда
54.932395,29135,73.366802,Ленинский районный суд
54.934725,29309,73.366464,Авангард (по требованию)
54.938584,29158,73.370219,Речной порт
54.92938,28469,73.378369,1-я Советская
54.924214,28470,73.370981,4-я Новая
54.920261,28471,73.367193,Кинотеатр Мир
54.916624,28472,73.372811,8-я Марьяновская
54.912272,28473,73.38078,14-я Марьяновская
54.904238,29075,73.392404,Сады Сибирский садовод
54.893802,29076,73.415594,Оптовый рынок (в сторону ул. Гашека)
54.887645,29106,73.421697,Пост ГАИ (Черлакский тракт)
54.884149,29107,73.421375,Южное кладбище (перед постом ГАИ)
54.877603,29108,73.420713,Сигнал
54.863859,29109,73.417775,Звёздочка-1
54.855964,29110,73.412079,Звёздочка
54.854849,29111,73.403221,Медицинские склады
54.846317,29112,73.403244,ОВТИУ
54.842854,29113,73.394964,Новая станица-1
54.835524,29114,73.368864,Новая станица
54.835612,29115,73.368677,Новая станица
54.842898,29116,73.395176,Новая станица-1
54.846225,29117,73.40313,ОВТИУ
54.854808,29118,73.40328,Медицинские склады
54.857004,29119,73.412492,Звёздочка
54.863713,29120,73.417743,Звёздочка-1
54.87778,29121,73.420793,Сигнал
54.884219,29122,73.421444,Южное кладбище (перед постом ГАИ)
54.888644,29123,73.422082,Пост ГАИ (Черлакский тракт)
54.893977,29079,73.415507,Оптовый рынок (в сторону ул. Гашека)
54.89643,29080,73.412313,По требованию (Черлакский тракт)
54.90474,29081,73.391762,Сады Сибирский садовод
54.905761,29082,73.388788,ГАИ
54.912064,28500,73.381964,14-я Марьяновская
54.916967,28501,73.372432,8-я Марьяновская
54.921852,28502,73.367277,Кинотеатр Мир
54.92382,28503,73.369832,4-я Новая
54.929539,28504,73.378599,1-я Советская
54.977015,28393,73.41413,20 лет РККА (ул. Шебалдина)
54.980692,28394,73.413491,Красных Зорь
54.985033,28395,73.412801,10 лет Октября
54.991831,28396,73.411664,Омская
55.001737,28397,73.404457,2-я Восточная
55.007272,28399,73.416248,Холодильник
55.008807,28400,73.418639,ГАТП №5
55.014348,28401,73.419591,МСЧ-11
55.039051,29389,73.453155,Облепиховая
55.038857,29398,73.446302,Онкодиспансер
55.039678,29173,73.427389,Спецшкола
55.042404,29174,73.428626,Цукановой
55.046498,29175,73.426735,Микрорайон Амурский-2
55.051236,29399,73.424909,Учитель (по требованию)
55.053793,29400,73.424525,Сады Учитель
55.05727,29401,73.423311,снт Любитель-3
55.061795,28999,73.423017,Пост ГАИ
55.068295,29000,73.417882,пос. Большие поля
55.068551,29001,73.417941,пос. Большие поля
55.061669,29002,73.422714,Пост ГАИ
55.05711,29402,73.423502,снт Любитель-3
55.054079,29403,73.424372,Сады Учитель
55.045522,29176,73.427079,Микрорайон Амурский-2
55.041884,29177,73.428688,Цукановой
55.038644,29404,73.433225,Спецприемник
55.038692,29405,73.44263,Онкодиспансер
55.038859,29391,73.448543,По требованию (Завертяева)
55.039028,29392,73.454576,Облепиховая
55.03673,29393,73.460029,6-й пер. Донецкий
55.018165,28435,73.420085,Школа №30
55.013632,28436,73.419412,МСЧ-11
55.009543,28437,73.418711,ГАТП №5
55.007219,28438,73.415617,Холодильник
54.989663,28441,73.40886,Омская
54.986112,28442,73.409481,10 лет Октября
54.98293,28443,73.410001,Лермонтова
54.979864,28444,73.410462,Красных Зорь
54.975763,28445,73.4112,20 лет РККА
54.971758,28446,73.411926,Магазин Мысль
55.014599,29563,73.218785,снт Медик
55.011021,29564,73.21765,По требованию (в сторону снт Медик)
54.998054,28780,73.210656,ММТ
55.038658,28673,73.311807,проспект Королёва
55.040981,28674,73.312834,Заозёрная
55.043531,28675,73.313931,Кинотеатр Первомайский
55.047477,28899,73.315631,Первомайский рынок
55.050352,28900,73.3186,Бородина
55.04934,28677,73.325836,Имени В. Бархатовой
55.049988,28874,73.321306,Бородина
55.053122,28875,73.317584,Стрельникова (трамвайное кольцо)
55.050758,28876,73.316566,Бородина
55.047606,28877,73.315212,Первомайский рынок
55.043159,28679,73.313302,Кинотеатр Первомайский
55.040752,28680,73.312263,Заозёрная
55.038428,28681,73.311234,проспект Королёва
54.998036,28807,73.211235,ММТ
55.010748,29561,73.217586,По требованию (в сторону снт Медик)
55.014452,29562,73.218965,снт Медик
55.003432,28778,73.196497,ДСК-2
55.000535,28779,73.20411,Мясокомбинат
54.983898,28785,73.284974,Автобаза
54.981192,28786,73.290456,Троллейбусное депо
54.972431,28744,73.382264,Ленинградская пл.
54.922141,28456,73.452275,пос. Южный
54.922726,28457,73.458635,Школа №110
54.923321,28458,73.464657,ДК Железнодорожник
54.923718,28459,73.469433,Воинская
54.924849,28460,73.481352,2-я Ленинградская
54.925214,28461,73.485257,3-я Балтийская
54.922909,28759,73.486943,Нежинский геронтологический центр
54.915637,28760,73.489092,пос. Омской птицефабрики
54.915475,28791,73.489217,пос. Омской птицефабрики
54.92327,28761,73.486912,Нежинский геронтологический центр
54.925322,28377,73.486023,3-я Балтийская
54.924872,28378,73.48121,2-я Ленинградская
54.923956,28379,73.471619,Воинская
54.923308,28380,73.464216,ДК Железнодорожник
54.922602,28381,73.456887,Школа №110
54.974548,28792,73.409617,Финансово-экономический институт
54.974086,28793,73.402169,3-я линия
54.973714,28794,73.395413,СКК им. Блинова
54.984733,28795,73.312609,Дмитриева
54.982356,28796,73.309318,проспект Комарова (ул. Дмитриева)
54.980646,28797,73.305516,12-й микрорайон
54.977757,28798,73.301249,1-я Садовая
54.981491,28800,73.289945,Троллейбусное депо
54.984228,28801,73.284401,Автобаза
55.000893,28808,73.203602,Мясокомбинат
55.003273,28809,73.19589,ДСК-2
54.960498,29307,73.386162,Магазин Юный техник
54.939386,29346,73.383911,Ж/д вокзал
54.940697,28656,73.38463,Ж/д вокзал
54.994622,29358,73.563761,Сады Золотое Руно
54.992592,29359,73.559048,Сады Золотой ранет
54.990139,29360,73.550943,Сады Спектр
54.993193,29361,73.542852,Сады Космос
54.997072,29362,73.531268,Сады Заря (Центральный)
54.99459,29364,73.491203,Садоводческое товарищество Омский садовод
54.993148,29365,73.484811,Бауцентр
54.991921,29366,73.479326,Пожарная часть (ул. 10 лет Октября)
54.988114,29027,73.479544,По требованию (Окружная дорога)
54.982358,28508,73.469966,пос. Чкаловский
54.981347,28509,73.471296,Романенко
54.97837,28510,73.477828,50 лет ВЛКСМ
54.973318,28511,73.477835,Поликлиника (ул. 50 лет ВЛКСМ)
54.972783,28512,73.473863,75 Гвардейской Бригады
54.974731,28513,73.465084,ПТУ-43
54.976583,28514,73.459136,ПО Автоматика
54.972871,28515,73.452229,Столовая (проспект Космический)
54.969827,28516,73.446491,Кинотеатр Космос
54.968559,29332,73.434444,Берникова (по требованию)
54.971634,29333,73.439141,СТО ЗАЗ
54.977926,29334,73.437097,3-й разъезд
54.977558,29335,73.431246,25-я линия (ул. 20 лет РККА)
54.977205,29336,73.425087,20-я линия (ул. 20 лет РККА)
54.976867,29337,73.419198,16-я линия (ул. 20 лет РККА)
54.922968,29367,73.357225,ДРСУ
54.916417,28827,73.362385,5-я Марьяновская
54.914834,28828,73.3609,МСЧ-4
54.911853,28829,73.358105,2-я Тепловозная
54.909442,28830,73.356596,Школа-интернат
54.904445,28831,73.354322,7-я Электровозная
54.903296,28832,73.34912,Сады Энергетик
54.903251,28833,73.339259,Сады Заря-2
54.903076,28834,73.339675,Сады Заря-2
54.903282,28835,73.34868,Сады Энергетик
54.903953,28836,73.354165,7-я Электровозная
54.906045,28837,73.355133,5-я Электровозная
54.908564,28838,73.356265,Школа-интернат
54.912147,28839,73.358451,2-я Тепловозная
54.915137,28840,73.361254,МСЧ-4
54.916637,28841,73.362669,5-я Марьяновская
54.975016,29327,73.417764,Школа №56
54.975613,29328,73.426433,20-я линия (ул. Масленникова)
54.975966,29329,73.431297,ИФК
54.977281,28914,73.439364,3-й разъезд
54.971464,29330,73.439066,СТО ЗАЗ
54.969247,29331,73.438534,Берникова (по требованию)
54.970232,28580,73.447602,Кинотеатр Космос
54.973621,28581,73.453967,Столовая (проспект Космический)
54.976671,28582,73.459644,ПО Автоматика
54.974036,28583,73.46607,ПТУ-43
54.972719,28584,73.473173,75 Гвардейской Бригады
54.972721,28585,73.477059,Поликлиника (ул. 50 лет ВЛКСМ)
54.975456,28586,73.477942,Магазин (ул. 50 лет ВЛКСМ)
54.980422,28587,73.477935,50 лет ВЛКСМ
54.981585,28588,73.470235,Романенко
54.982199,29369,73.470498,пос. Чкаловский
54.984014,28507,73.474862,пос. Чкаловский
54.987978,29033,73.479774,По требованию (Окружная дорога)
54.991606,29370,73.478133,Пожарная часть (ул. 10 лет Октября)
54.993648,29371,73.487201,Бауцентр
54.994767,29372,73.492164,Садоводческое товарищество Омский садовод
55.00125,29373,73.518469,Сады Фантазия
54.990107,29375,73.550999,Сады Спектр
54.992611,29376,73.559186,Сады Золотой ранет
54.994521,29377,73.563656,Сады Золотое Руно
55.053036,29018,73.318438,Стрельникова (трамвайное кольцо)
54.940495,28700,73.384334,Ж/д вокзал
54.970618,28939,73.286642,СТЦ Мега
54.980938,28940,73.293512,Садовая
54.985029,28941,73.299647,ЖК Кристалл
54.939662,29251,73.423083,15-я Рабочая
54.939397,29246,73.422495,15-я Рабочая
54.984194,28936,73.298312,ПКиО им. 300 лет Омска
54.970741,28938,73.286827,СТЦ Мега
54.995396,28529,73.358629,Библиотека им. Пушкина
54.997882,28530,73.355748,Рабиновича (ул. Красный Путь)
55.00189,28531,73.350965,Сибзавод
55.008179,28532,73.343271,Городок Водников
55.011908,28533,73.334604,Старозагородная Роща
55.011413,28562,73.335631,Старозагородная Роща
55.007849,28563,73.343363,Городок Водников
55.001249,28564,73.351448,Сибзавод
54.997033,28565,73.35643,Рабиновича (ул. Красный Путь)
54.928205,29671,73.253657,Магистральный
54.906915,117894,73.25861,Карбышево-2
54.906832,117895,73.258699,Карбышево-2
54.927913,29672,73.253321,Магистральный
54.998303,29669,73.483669,ТЭЦ-5
54.99114,29034,73.475643,ОПОГАТ-9
54.990258,29035,73.468988,Куйбышевская база
54.989979,29036,73.460973,Автосервис (ул. 10 лет Октября)
54.989688,29037,73.450695,ПАТП-1
54.98826,28605,73.437228,РЕЛЕРО
54.987194,28864,73.432083,25-я линия (ул. 10 лет Октября)
54.986583,28865,73.426223,20-я линия  (ул. 10 лет Октября)
54.986141,28866,73.418011,16-я линия  (ул. 10 лет Октября)
54.985603,28867,73.408738,9-я линия
54.985294,28868,73.403061,6-я линия
54.984943,28614,73.396183,Городской музей
54.984658,28615,73.39183,Декабристов
54.983543,28616,73.383153,Театральная пл.
54.938783,29418,73.333634,Военкомат (ул. Димитрова)
54.939126,29419,73.328558,Техникум (ул. Граничная)
54.939858,29420,73.320769,22 Декабря
54.936116,29574,73.316128,По требованию (ул. Олега Кошевого)
54.932853,29286,73.274447,Кладбище
54.931455,29670,73.262598,Сады (по требованию)
54.93135,29673,73.262283,Сады (по требованию)
54.932505,29289,73.274161,Кладбище
54.935791,29566,73.319787,По требованию (ул. Олега Кошевого)
54.939867,29450,73.320507,22 Декабря
54.939122,29451,73.327658,Техникум (ул. Граничная)
54.938134,29452,73.333482,Военкомат (ул. Димитрова)
54.983448,28641,73.383167,Театральная пл.
54.984574,28642,73.392598,Декабристов
54.984896,28857,73.397767,Городской музей
54.985203,28858,73.404033,6-я линия
54.985567,28859,73.410498,9-я линия
54.986046,28860,73.418688,16-я линия  (ул. 10 лет Октября)
54.986412,28861,73.425521,20-я линия  (ул. 10 лет Октября)
54.987471,28652,73.434141,25-я линия (ул. 10 лет Октября)
54.989601,29023,73.450779,ПАТП-1
54.9899,29024,73.461389,Автосервис (ул. 10 лет Октября)
54.990256,29025,73.469983,Куйбышевская база
54.991017,29026,73.475346,ОПОГАТ-9
54.997828,29675,73.479063,Пожарная часть
54.957204,28590,73.414398,ПО Полет (конечная)
54.960654,28591,73.413857,ПО им. Баранова
54.965972,28592,73.41319,Лизы Чайкиной
54.972744,28593,73.411987,ПКиО им. 30 лет ВЛКСМ
54.975206,28594,73.41154,20 лет РККА
54.979543,28595,73.41077,Красных Зорь
54.983312,28330,73.408811,9-я линия
54.983042,28331,73.403812,5-я линия
54.982612,28332,73.395335,Куйбышева
54.9817,28333,73.387699,Маршала Жукова
54.976686,28334,73.388765,Казачий рынок
54.971165,28335,73.389865,Маяковского
54.964882,28336,73.391222,Юнгородок
54.96065,28337,73.394843,Бульварная
54.956532,28338,73.391513,Трамвайное депо
54.954788,28339,73.38828,Цирк
54.95266,28340,73.384818,Гостиница Омск
54.947705,28341,73.384337,пл. Серова
54.940551,28342,73.381697,Ленинский рынок
54.937529,28343,73.378856,Речной порт
54.936137,28344,73.3782,Котельникова
54.936113,28345,73.378253,Котельникова
54.940685,28346,73.381827,Ленинский рынок
54.947452,28347,73.384375,пл. Серова
54.952416,28348,73.384857,Гостиница Омск
54.95489,28349,73.386278,Цирк
54.95629,28350,73.391657,Трамвайное депо
54.960404,28351,73.394978,Бульварная
54.964546,28352,73.391352,Юнгородок
54.970702,28353,73.39002,Маяковского
54.9766,28354,73.388867,Казачий рынок
54.982154,28355,73.389207,Учебная
54.982671,28356,73.396771,Куйбышева
54.982993,28357,73.403593,5-я линия
55.028933,29182,73.492984,пос. Степной
54.983315,28358,73.409532,9-я линия
54.97987,28596,73.410625,Красных Зорь
54.975357,28597,73.41145,20 лет РККА
54.972579,28598,73.411954,ПКиО им. 30 лет ВЛКСМ
54.966538,28599,73.413032,Лизы Чайкиной
54.960761,28600,73.413782,ПО им. Баранова
54.956582,28601,73.414265,ПО Полет (конечная)
54.928998,29454,73.312235,Южная
54.92338,29455,73.311278,ДОК (ул. 5-я Кировская)
54.917456,29538,73.309976,5-я Кировская
54.897108,29539,73.30501,Механический завод
54.890494,29540,73.30219,Ясная Поляна
54.890568,29536,73.302209,Ясная Поляна
54.897232,29537,73.305171,Механический завод
55.023878,28988,73.376252,24-я Северная (ул. Герцена)
55.026382,28989,73.376575,27-я Северная (ул.Герцена)
55.030582,28427,73.378411,33-я Северная
55.030513,28428,73.384811,Мебельная фабрика (ул. 33-я Северная)
55.030431,28429,73.390606,4-я Амурская
55.030321,28430,73.397638,11-я Амурская (ул. 33-я Северная)
55.030217,28431,73.404261,16-я Амурская  (ул. 33-я Северная)
55.028971,28432,73.40866,19-я Амурская  (ул. 33-я Северная)
54.967311,28517,73.429367,"Объединение им. Баранова ""Дворец школьников"""
54.966733,28518,73.420228,Омскэлектро
54.966427,28577,73.416485,Администрация Октябрьского АО
54.966789,28578,73.422165,Омскэлектро
54.967375,28579,73.431243,"Объединение им. Баранова ""Дворец школьников"""
54.983713,28589,73.473936,пос. Чкаловский
54.991275,28713,73.297328,5-й микрорайон
54.993543,28714,73.293175,Больница (ул. Степанца)
54.997828,28971,73.285857,Левобережный рынок (ул. Степанца)
55.029806,28540,73.285517,КДЦ Кристалл (ул. Химиков)
55.03529,28541,73.289012,"Городской театр ""Студия"" Л. Ермолаевой"
55.041055,28542,73.292715,ДК Химик
55.041398,29226,73.294335,ДК Химик
55.039769,29227,73.300036,Городская поликлиника №4
55.037806,29228,73.306956,Волкова
55.037989,29223,73.306652,Волкова
55.039958,29224,73.299727,Городская поликлиника №4
55.041517,29347,73.29427,ДК Химик
55.041422,28553,73.292607,ДК Химик
55.034892,28554,73.288385,"Городской театр ""Студия"" Л. Ермолаевой"
54.993378,28974,73.293256,Больница (ул. Степанца)
54.991046,28975,73.297696,5-й микрорайон
55.027016,28319,73.42776,пос. Амурский
55.024831,28320,73.421618,Багратиона (по требованию)
55.023204,28321,73.415849,4-я Челюскинцев
55.021691,28322,73.410487,Магазин Заря
55.019093,28323,73.406565,Челюскинцев
55.013792,28324,73.40574,Школа №93
55.009385,28325,73.401142,ЛДС им. Фетисова
54.996306,28327,73.408871,Мост
54.992408,28328,73.409872,Нейбута
54.987679,28329,73.410689,Звездова
54.986818,28359,73.410901,Звездова
54.992283,28360,73.409956,Нейбута
54.996266,28361,73.408939,Мост
55.001271,28362,73.405106,2-я Восточная
55.006029,28363,73.397338,11-я Ремесленная
55.009177,28364,73.400952,ЛДС им. Фетисова
55.01385,28365,73.405808,Школа №93
55.019281,28366,73.406656,Челюскинцев
55.021386,28367,73.409548,Магазин Заря
55.02381,28368,73.418139,4-я Челюскинцев
55.024728,28369,73.421395,Багратиона (по требованию)
55.026115,28370,73.426317,Ул. Багратиона
55.026844,28371,73.428113,пос. Амурский
54.913145,28474,73.388829,6-я Комсомольская
54.916347,28475,73.389977,2-я Комсомольская
54.919811,28476,73.399966,ДК им. Гуртьева
54.94119,28485,73.393131,Поликлиника (ул. Карбышева)
54.936922,28486,73.392895,Ж/д больница
54.937943,28487,73.392972,Ж/д больница
54.942217,28488,73.393264,Поликлиника (ул. Карбышева)
54.920011,28497,73.398797,ДК им. Гуртьева
54.91707,28498,73.391134,2-я Комсомольская
54.91245,28499,73.388516,6-я Комсомольская
54.905354,29152,73.367754,1 Мая
54.905431,29153,73.361086,Школа №114
55.040708,28634,73.275064,Хлебозавод (ул. 22 Апреля)
55.042012,28635,73.281106,ДК Звёздный
55.042107,28636,73.28801,ОМЦ Химик
55.045452,28543,73.295293,Энтузиастов (ул. Химиков)
55.061875,29159,73.31871,АГЗС
55.072325,29160,73.295255,ДП-9
55.071676,29161,73.292719,Заводоуправление
55.070421,29162,73.287817,СМУ
55.068038,29163,73.278512,АО Омский каучук
55.067435,29164,73.276162,Завод ОРЗ
55.06732,29165,73.275866,Завод ОРЗ
55.068071,29166,73.278797,АО Омский каучук
55.070454,29167,73.288099,СМУ
55.071784,29168,73.293296,Заводоуправление
55.07413,29169,73.302463,ДП-9
55.061679,29170,73.317859,АГЗС
55.04724,28910,73.300002,Лаптева
55.044751,28552,73.294737,Энтузиастов (ул. Химиков)
55.042182,28618,73.288879,ОМЦ Химик
55.042083,28619,73.281692,ДК Звёздный
55.040576,28620,73.274296,Хлебозавод (ул. 22 Апреля)
54.921298,28826,73.366901,Кинотеатр Мир
54.90583,29147,73.355423,5-я Электровозная
54.905395,29148,73.361102,Школа №114
54.905315,29149,73.368222,1 Мая
54.952454,29047,73.417621,4-я Транспортная (по требованию)
54.951837,29048,73.427177,Магазин Фиалка
54.951411,29708,73.433319,Автоколонна №1253
54.950118,29030,73.45272,6-я Шинная
54.950217,28849,73.456365,Сбербанк (ул. 3-я Молодёжная)
54.951728,28850,73.464133,3-я Молодёжная
54.953789,28851,73.473423,Гаражи (ул. 3-я Молодёжная)
54.954319,29710,73.490066,Филиал автоколонны №1253
54.939069,29711,73.496063,Переезд (ул. Барабинская)
54.939819,29712,73.509383,Кирпичный завод (ул. Барабинская)
54.940706,29713,73.518454,По требованию (ул. Барабинская)
54.941164,29714,73.523543,пос. Волжский
54.945183,29715,73.529739,Сады Весна
54.94991,29716,73.533187,Сады Мир
54.951605,29717,73.537746,Карьер (в сторону пос. Осташково)
54.955316,29718,73.548873,Сады Строитель-3
54.960403,29719,73.554009,Микрорайон Осташково
54.960516,29720,73.553909,Микрорайон Осташково
54.955246,29721,73.548462,Сады Строитель-3
54.951508,29722,73.537332,Карьер (в сторону пос. Осташково)
54.949201,29723,73.531847,Сады Мир
54.945168,29724,73.529662,Сады Весна
54.941187,29725,73.523404,пос. Волжский
54.939816,29726,73.508975,Кирпичный завод (ул. Барабинская)
54.939112,29727,73.496189,Переезд (ул. Барабинская)
54.954994,29728,73.489905,Филиал автоколонны №1253
54.953939,28815,73.473922,Гаражи (ул. 3-я Молодёжная)
54.951556,28816,73.463106,3-я Молодёжная
54.950165,28817,73.455777,Сбербанк (ул. 3-я Молодёжная)
54.950517,29729,73.447402,6-я Шинная
54.951466,29731,73.433053,Автоколонна №1253
54.951864,29732,73.427306,Магазин Фиалка
54.952479,29733,73.417799,4-я Транспортная (по требованию)
54.948641,29437,73.170687,По требованию (микрорайон Входной)
54.947149,29438,73.173717,Станция Входная
54.944762,29439,73.215414,Подстанция
54.943825,29440,73.232223,2888-й км
54.945804,29441,73.262871,Сады (в сторону ст. Входная)
54.952018,29442,73.272335,Агропромдорстрой-3
54.950605,29443,73.276585,пос. Немецкий
54.949255,29444,73.280647,Агропромдорстрой
54.947489,29445,73.286655,Дорожная
54.946999,29446,73.294012,ДОЦ
54.943537,29448,73.308408,5 Декабря
54.942243,29449,73.31276,Магазин (ул. 22 Декабря)
54.997225,29269,73.281154,Автовокзал (проспект Комарова)
54.99626,29263,73.282531,Левобережный рынок (проспект Комарова)
54.942425,29421,73.312389,Магазин (ул. 22 Декабря)
54.943565,29422,73.308549,5 Декабря
54.945324,29423,73.302728,Ключевая
54.947067,29424,73.293682,ДОЦ
54.947602,29425,73.286404,Дорожная
54.949426,29426,73.280352,Агропромдорстрой
54.950841,29427,73.276094,пос. Немецкий
54.945805,29428,73.262595,Сады (в сторону ст. Входная)
54.943984,29429,73.232032,2888-й км
54.944869,29430,73.215369,Подстанция
54.947297,29433,73.173367,Станция Входная
54.948606,29434,73.170665,По требованию (микрорайон Входной)
54.948522,29435,73.173717,Микрорайон Входной
55.02654,29230,73.217071,Микрорайон Юбилейный (конечная)
55.029228,29231,73.249531,Магазин Весна
55.032904,29232,73.249375,Дворец бракосочетания
55.035954,29233,73.257013,Сквер молодожёнов
55.006637,28985,73.347499,Волховстроя
55.009009,28986,73.359144,Средняя (ул. 7-я Северная)
55.008928,28987,73.365699,Орджоникидзе (ул. 7-я Северная)
54.957625,28842,73.417292,3-я Транспортная
54.958038,28843,73.427891,Кислородный завод
54.959362,28844,73.437976,Шинный завод
54.958814,28845,73.445854,пос. Кордный
54.958102,28846,73.450969,Поликлиника (ул. 5-я Кордная)
54.955183,28847,73.451407,40 лет Октября
54.950927,28848,73.450913,6-я Шинная
54.960771,28852,73.47132,МСЧ-9
54.960238,28814,73.471606,МСЧ-9
54.951376,28818,73.450844,6-я Шинная
54.955443,28819,73.451547,40 лет Октября
54.958193,28820,73.450583,Поликлиника (ул. 5-я Кордная)
54.959152,28821,73.443652,пос. Кордный
54.959386,28822,73.438076,Шинный завод
54.95904,28823,73.434649,Шинный завод (ул. Индустриальная)
54.958047,28824,73.427197,Кислородный завод
54.958141,28825,73.414936,3-я Транспортная
55.008942,29014,73.3737,7-я Северная (ул. Герцена)
55.009042,29015,73.363774,Орджоникидзе (ул. 7-я Северная)
55.008957,29016,73.356915,Средняя (ул. 7-я Северная)
55.007099,29017,73.348451,Волховстроя
55.026711,29229,73.216167,Микрорайон Юбилейный (конечная)
54.976104,29676,73.398489,Банк
54.980746,29677,73.397689,Областная детская больница
54.97331,29244,73.302818,Школа
54.973087,29678,73.292182,СТЦ Мега
54.980717,29264,73.327672,Строймаркет Новосёл
54.980098,29679,73.397739,Областная детская больница
54.975782,29680,73.398425,Банк
54.974134,29496,73.406193,5-я линия (ул. Масленникова)
54.989009,28862,73.441758,Завод им. Попова
54.988925,28911,73.443055,Завод им. Попова
54.9841,28912,73.438852,Трамвайное кольцо (ул. 3-й разъезд)
54.981778,28913,73.438599,3-й разъезд (по требованию)
54.989949,29558,73.48634,Бауцентр (конечная)
54.990097,29559,73.487171,Бауцентр (конечная)
54.991659,29560,73.488035,Бауцентр (ул. 10 лет Октября)
54.978735,28901,73.439122,3-й разъезд
54.982321,28902,73.438721,Красных Зорь (ул. 3-й разъезд)
54.984989,28903,73.438986,Трамвайное кольцо (ул. 3-й разъезд)
54.988413,28904,73.442725,Завод им. Попова
54.989327,28863,73.441165,Завод им. Попова
55.029193,29019,73.336388,Агрохимцентр
54.957663,29394,73.454129,5-я Кордная
54.956853,29395,73.459994,Детский сад (ул. 5-я Кордная)
54.960852,29396,73.465359,Школа (ул. 5-я Кордная)
54.960477,29387,73.463428,Школа (ул. 5-я Кордная)
54.957327,29388,73.460738,Детский сад (ул. 5-я Кордная)
55.030789,29179,73.424452,на Багратиона
55.027319,29180,73.427137,пос. Амурский
55.02526,29181,73.42253,Багратиона (по требованию)
55.027679,28405,73.412156,21-я Амурская
55.029424,28406,73.407591,19-я Амурская  (ул. 33-я Северная)
55.030269,28407,73.403353,16-я Амурская  (ул. 33-я Северная)
55.030369,28408,73.396925,11-я Амурская (ул. 33-я Северная)
55.030475,28409,73.390158,4-я Амурская
55.030542,28410,73.385424,Мебельная фабрика (ул. 33-я Северная)
55.029914,29012,73.376874,33-я Северная
55.025823,29013,73.376346,27-я Северная (ул.Герцена)
55.027073,29171,73.427311,пос. Амурский
55.030714,29172,73.42462,на Багратиона
54.986612,29234,73.201968,Микрорайон Рябиновка
54.989883,28945,73.371867,пл. Победы
54.98682,29237,73.201912,Микрорайон Рябиновка
55.006865,29130,73.30044,Оби
55.003665,29131,73.302208,Микрорайон Прибрежный
54.996805,29132,73.291952,Городская больница №1 Г.Б им.Кабанова
54.996533,29126,73.291747,Городская больница №1 Г.Б им.Кабанова
54.999247,29127,73.29586,БСМП
55.003059,29128,73.301383,Микрорайон Прибрежный
55.0067,29129,73.300816,Оби
55.059122,29003,73.418398,Сады Любитель-2
55.056647,29004,73.414069,Сады Амурский
55.053094,29005,73.407855,Сады Виктория-2
55.051101,29006,73.404371,Сады Виктория
55.048956,29007,73.400621,ПМК-3
55.045482,29008,73.394547,ОСТО
55.042304,29009,73.388991,Сады Энергия
55.040175,29010,73.38527,Сады Водник
55.036901,29011,73.379605,Переезд (Пушкинский тракт)
55.033154,28426,73.377339,МКБ
55.031061,28411,73.377134,33-я Северная
55.033541,28412,73.377452,МКБ
55.03678,28990,73.379487,Переезд (Пушкинский тракт)
55.040262,28991,73.385509,Сады Водник
55.04238,28992,73.389212,Сады Энергия
55.045431,28993,73.394547,ОСТО
55.048852,28994,73.400528,ПМК-3
55.051271,28995,73.404757,Сады Виктория
55.053364,28996,73.408416,Сады Виктория-2
55.05667,28997,73.414197,Сады Амурский
55.059021,28998,73.41831,Сады Любитель-2
54.993222,29350,73.316618,Крупской (по требованию)
54.993007,29351,73.311403,бульвар Архитекторов
54.989979,29352,73.306884,Универсам (бульвар Архитекторов)
54.990672,29354,73.308,Универсам (бульвар Архитекторов)
54.993394,29355,73.312063,бульвар Архитекторов
54.992705,29356,73.317569,Крупской (по требованию)
54.991245,29357,73.320528,Крупской
54.965707,29028,73.445059,СПТУ-21
54.959952,29029,73.441426,Промышленная
54.960603,29031,73.441744,Промышленная
54.966178,29032,73.445089,СПТУ-21
54.997888,28973,73.285575,Левобережный рынок (ул. Степанца)
54.978178,28976,73.327396,ТЦ Континент
54.978512,28970,73.327675,ТЦ Континент
55.041148,29348,73.202457,Завод Металлист
55.021178,28888,73.186334,РЭБ
55.007508,28889,73.188752,Автосервис (ул. 2-я Солнечная)
55.004259,28890,73.196261,ДСК-2
55.007415,28886,73.189399,Автосервис (ул. 2-я Солнечная)
55.02103,28887,73.186256,РЭБ
55.033969,29463,73.243674,Дружбы
55.036429,29464,73.242067,Новосёлов
55.037766,29465,73.246137,50 лет Октября
55.039996,29466,73.252673,Имени генерал-майора Скрыпник Н. В.
55.041986,29467,73.25952,пос. Ермак
55.042195,29468,73.260052,пос. Ермак
55.039838,29469,73.251995,Имени генерал-майора Скрыпник Н. В.
55.038025,29470,73.246681,50 лет Октября
55.036428,29471,73.241831,Новосёлов
55.033918,29472,73.244522,Дружбы
55.032212,29473,73.249342,Дворец бракосочетания
54.992409,29245,73.207597,ПАТП-8
54.992536,29242,73.207814,ПАТП-8
54.978896,29414,73.463785,Рынок (проспект Космический)
54.980572,29415,73.466911,Почта (проспект Космический)
54.980752,29416,73.466904,Почта (проспект Космический)
54.978972,29417,73.463584,Рынок (проспект Космический)
54.885743,29259,73.372485,пос. Армейский
54.881114,29260,73.353292,снт Искра
54.881093,29261,73.347072,Карьер (ул. Воровского)
54.883894,29096,73.346442,Оздоровительный лагерь
54.887388,29097,73.346619,Калитка
54.893346,29098,73.34926,Сады Локомотив
54.898841,29099,73.351945,17-я Электровозная
54.943548,29262,73.393292,Техникум (ул. Карбышева)
54.945511,29255,73.39354,Карбышева
54.899192,29088,73.352018,17-я Электровозная
54.892148,29089,73.348668,Сады Локомотив
54.887322,29090,73.346508,Калитка
54.883873,29091,73.346374,Оздоровительный лагерь
54.880994,29256,73.347223,Карьер (ул. Воровского)
54.881207,29257,73.353496,снт Искра
54.885622,29258,73.372636,пос. Армейский
55.027764,29248,73.365196,Магазин (ул. Орджоникидзе)
55.0295,28425,73.365229,Гараж ЦС
55.029129,28413,73.365065,Гараж ЦС
55.026423,29249,73.365014,Магазин (ул. Орджоникидзе)
54.987101,29155,73.18797,Багнюка (конечная)
54.986973,29154,73.187853,Багнюка (конечная)
54.940871,29052,73.445566,3-я Железнодорожная
54.938207,29053,73.442444,1-я Железнодорожная
54.940881,29659,73.445973,3-я Железнодорожная
54.927516,28764,73.511566,Микрорайон Булатова (конечная)
54.926799,28765,73.503399,Сады (в сторону пос. Булатова)
54.925991,28376,73.493769,5-я Ленинградская
54.926036,28462,73.494813,5-я Ленинградская
54.926757,28762,73.503107,Сады (в сторону пос. Булатова)
54.927427,28763,73.511228,Микрорайон Булатова (конечная)
54.955387,29138,73.333126,Транссибирская
54.958668,29139,73.328326,Аэропорт (по требованию)
54.956735,29141,73.318482,Аэропорт
54.95079,29142,73.329017,Летное училище
54.948765,29273,73.332674,Авиационная
54.935414,29287,73.275008,Новокировское кладбище
54.935322,29288,73.274938,Новокировское кладбище
54.948725,29302,73.332836,Авиационная
54.95094,29303,73.328994,Летное училище
54.957042,29304,73.31804,Аэропорт
54.95861,29305,73.327921,Аэропорт (по требованию)
54.955079,29306,73.333372,Транссибирская
54.956666,28812,73.40593,Поликлиника (ул. 3-я Транспортная)
54.95827,28813,73.399526,Панфилова
54.958216,28810,73.399358,Панфилова
54.956594,28811,73.40557,Поликлиника (ул. 3-я Транспортная)
54.990507,28567,73.364266,КДЦ Маяковский
55.025831,29250,73.411042,"Ателье ""Пушинка"""
55.026923,29353,73.412054,21-я Амурская
55.024275,29247,73.408912,"Ателье ""Пушинка"""
54.983463,28935,73.335481,Амбулатория
55.038294,28633,73.265936,пл. Лицкевича
54.985424,28643,73.39692,Куйбышева (Городской музей)
54.989554,28644,73.396201,Школа №65
54.990388,28645,73.401208,4-я линия (ул. Омская)
54.990628,28646,73.405907,8-я линия (ул. Омская)
54.991152,28647,73.415299,14-я линия (ул. Омская)
54.991331,28648,73.418394,17-я линия (ул. Омская)
54.991808,28649,73.426665,20-я линия (ул. Омская)
54.992032,28650,73.430553,25-я линия (ул. Омская)
54.987975,28651,73.432079,25-я линия (ул. 25-я линия)
54.989309,28653,73.446935,По требованию (пос. Биофабрика)
54.99308,28654,73.450395,Центр Пенаты
54.994541,28655,73.451633,пос. Биофабрика
54.994401,28602,73.451445,пос. Биофабрика
54.992976,28603,73.450237,Центр Пенаты
54.990772,28604,73.448594,По требованию (пос. Биофабрика)
54.98805,28606,73.432134,25-я линия (ул. 25-я линия)
54.992093,28607,73.430055,25-я линия (ул. Омская)
54.991813,28608,73.425183,20-я линия (ул. Омская)
54.991398,28609,73.418,17-я линия (ул. Омская)
54.991165,28610,73.413967,14-я линия (ул. Омская)
54.990678,28611,73.404908,8-я линия (ул. Омская)
54.990485,28612,73.400777,4-я линия (ул. Омская)
54.98935,28613,73.396127,Школа №65
55.038634,28621,73.264178,пл. Лицкевича
54.994427,29268,73.286753,Левобережный рынок (проспект Комарова)
54.97637,29243,73.300201,1-я Садовая
54.981091,29042,73.277066,1-й микрорайон
54.981215,29041,73.276533,1-й микрорайон
54.93968,29653,73.349921,мкр Регата
54.93961,29654,73.350058,мкр Регата
55.040602,28422,73.330677,Малиновского
55.041127,28416,73.32908,Малиновского
55.010595,29484,73.475287,1-я Учхозная
55.009157,29485,73.470033,По требованию (ст Гидротехник)
55.007858,29486,73.466137,Школа №33
55.005035,29487,73.463489,Новостройка (ул. 1-я Учхозная)
55.001825,29488,73.458704,Заречная (по требованию)
54.999362,29489,73.452939,СМУ Омскавтотранс
54.99771,29490,73.443921,Фабрика нетканых материалов
54.996578,29491,73.448207,База Универсальная
54.993844,29492,73.444058,Металлобаза
54.992577,29493,73.438509,Вторчермет
54.99187,29318,73.364716,КДЦ Маяковский
54.996148,29319,73.364824,Рабиновича (ул. Орджоникидзе)
54.999131,29320,73.364892,Октябрьская
55.00325,29321,73.364961,1-я Северная
55.008327,29322,73.364988,7-я Северная
55.013701,29323,73.365017,12-я Северная
55.017153,29324,73.36504,16-я Северная
55.020399,29325,73.365099,20-я Северная
55.022427,29326,73.365136,24-я Северная (ул. Орджоникидзе)
55.02313,29310,73.364916,24-я Северная (ул. Орджоникидзе)
55.019889,29311,73.364854,20-я Северная
55.016539,29312,73.364793,16-я Северная
55.013008,29313,73.364775,12-я Северная
55.008037,29314,73.364748,7-я Северная
55.004014,29315,73.364727,1-я Северная
55.001156,29316,73.364747,Октябрьская
54.997352,29317,73.364699,Рабиновича (ул. Орджоникидзе)
54.993177,29474,73.364593,КДЦ Маяковский
54.99275,29475,73.439787,Вторчермет
54.993972,29476,73.444846,Металлобаза
54.996528,29477,73.447805,База Универсальная
54.99725,29478,73.443235,Фабрика нетканых материалов
54.999449,29479,73.453503,СМУ Омскавтотранс
55.001681,29480,73.458555,Заречная (по требованию)
55.004973,29481,73.463507,Новостройка (ул. 1-я Учхозная)
55.007444,29482,73.465608,Школа №33
55.010483,29483,73.475024,1-я Учхозная
55.063474,28915,73.512807,пос. Загородный
55.061507,28916,73.504666,ПМК
55.058114,28917,73.508204,4-я Кленовая
55.036619,28920,73.468624,"Микрорайон ""Первокирпичный"" (конечная)"
55.036245,28963,73.468608,"Микрорайон ""Первокирпичный"" (конечная)"
55.044582,28965,73.489472,Развилка (в сторону пос. Загородный)
55.056298,28966,73.510246,В сторону пос. Загородный (по требованию)
55.058673,28967,73.507779,4-я Кленовая
55.061734,28968,73.504341,ПМК
55.063444,28969,73.512357,пос. Загородный
55.052269,29606,73.317418,Стрельникова (трамвайное кольцо)
55.050731,29607,73.316756,Бородина
55.047274,29608,73.31527,Первомайский рынок
55.043541,29609,73.313666,Кинотеатр Первомайский
55.040807,29610,73.312489,Заозёрная
55.037183,29611,73.31145,проспект Королёва
55.034097,29612,73.323428,Учхоз
55.031906,29613,73.328971,СибНИИСХоз
55.027143,29614,73.342937,пос. Рабочий
55.024082,29615,73.349097,Долгирева (по требованию)
55.022501,29616,73.351747,Долгирева
55.023527,29617,73.356512,Средняя
55.023585,29618,73.36428,24-я Северная (ул. Орджоникидзе)
55.020337,29619,73.36495,20-я Северная
55.016983,29620,73.364886,16-я Северная
55.013495,29621,73.364865,12-я Северная
55.009294,29622,73.364842,7-я Северная (ул. Орджоникидзе)
55.004549,29623,73.364817,1-я Северная
55.001711,29624,73.36586,Детская больница
55.000378,29625,73.371724,Герцена
54.99921,29626,73.379091,Чернышевского
54.999038,29627,73.38413,Кемеровская
55.000965,29628,73.391462,3-я Ремесленная
55.00343,29629,73.394322,7-я Ремесленная
55.003093,29630,73.393856,7-я Ремесленная
55.000294,29631,73.390609,3-я Ремесленная
54.998875,29632,73.38471,Кемеровская
54.999078,29633,73.379586,Чернышевского
55.000387,29634,73.371914,Герцена
55.00174,29635,73.366251,Детская больница
55.008831,29636,73.364902,7-я Северная (ул. Орджоникидзе)
55.012808,29637,73.364924,12-я Северная
55.016861,29638,73.364946,16-я Северная
55.019941,29639,73.365005,20-я Северная
55.023296,29640,73.354232,Средняя
55.022424,29641,73.351417,Долгирева
55.02398,29642,73.349276,Долгирева (по требованию)
55.02728,29643,73.342574,пос. Рабочий
55.031684,29644,73.329615,СибНИИСХоз
55.033825,29645,73.322438,Учхоз
55.035738,29646,73.315488,МЕТРО
55.037384,29647,73.311424,проспект Королёва
55.040684,29648,73.312499,Заозёрная
55.043677,29649,73.313789,Кинотеатр Первомайский
55.047343,29650,73.315364,Первомайский рынок
55.050557,29651,73.316746,Бородина
55.05295,29652,73.317957,Стрельникова (трамвайное кольцо)
55.009426,29551,73.401379,ЛДС им. Фетисова
55.009201,29542,73.400797,ЛДС им. Фетисова
55.006972,29543,73.396772,5-я Северная
54.940866,29272,73.396153,Зенькова
54.939885,29270,73.39601,Зенькова
54.905366,29656,73.363728,Школа №114
54.949711,29049,73.428666,Берко Цемента
54.948249,29050,73.432917,Завод Газоаппарат
54.945625,29051,73.438698,4-я Железнодорожная
54.974211,29681,73.439281,3-й разъезд (по требованию)
55.0046,29682,73.293706,Прибрежный микрорайон
55.005296,29683,73.29234,Прибрежный микрорайон
54.952088,29684,73.450598,По требованию (Шинная 6-я)
54.889824,29575,73.308694,пос. Мелиораторов
54.889577,29565,73.309064,пос. Мелиораторов
55.028891,29104,73.492621,пос. Степной
54.905299,29150,73.376883,19-я Марьяновская
54.905335,29151,73.376879,19-я Марьяновская
54.916107,29660,73.457808,Московка-2 (ул. Светловская)
54.913791,29661,73.461254,ТК Лента (по требованию)
54.910649,29662,73.465557,Микрорайон Уютный
54.895864,29663,73.479442,Зелёная Долина
54.887705,29664,73.483326,пос. Светлый
54.887545,29665,73.483501,пос. Светлый
54.896344,29666,73.479181,Зелёная Долина
54.911143,29667,73.465003,Микрорайон Уютный
54.973616,29571,73.305439,Школа
54.976441,29572,73.313561,Конева
54.9791,29573,73.321212,11-й микрорайон
54.915491,29696,73.443348,Фрезерная
54.91882,29697,73.436607,Строительный рынок Южный
55.056082,28548,73.315651,Стрельникова (ул. Коммунальная)
55.055039,28549,73.308558,Газтехнология
55.053674,28550,73.303584,Коммунальная
55.051709,28551,73.299196,Сады (ул. Химиков)
55.036631,29059,73.277563,Больничный городок
55.012781,29065,73.446806,"По требованию (Успешная, 51)"
55.010841,29066,73.453635,Кирпичный завод (конечная)
55.011144,29067,73.454319,Кирпичный завод (конечная)
55.012973,29068,73.446693,"По требованию (Успешная, 51)"
55.036433,29073,73.277482,Больничный городок
55.050829,28544,73.298754,Сады (ул. Химиков)
55.053888,28545,73.304527,Коммунальная
55.055107,28546,73.308952,Газтехнология
55.055888,28547,73.316754,Стрельникова (ул. Коммунальная)
54.935862,28372,73.509019,пос. Дальний
54.934798,28373,73.501806,Вагоноремонтное депо
54.93286,28374,73.494928,Кирпичный завод (ул. 6-я Ленинградская)
54.927568,28375,73.498322,3-я Станционная
54.993114,28722,73.249157,Дианова
54.991172,28723,73.248812,Дергачёва
54.990626,28724,73.248778,Дергачёва
54.928867,28463,73.498011,3-я Станционная
54.932813,28464,73.49486,Кирпичный завод (ул. 6-я Ленинградская)
54.934764,28465,73.501729,Вагоноремонтное депо
54.935769,28466,73.508534,пос. Дальний
54.974142,29685,73.273333,пос. Чукреевка
55.003387,29580,73.310963,пос. Рыбачий
55.003577,29588,73.311895,пос. Рыбачий
54.974215,29686,73.273444,пос. Чукреевка
54.891846,29078,73.420679,Поворот (в сторону ул. Гашека)
54.891883,29077,73.421885,Поворот (в сторону ул. Гашека)
55.006981,29592,73.506308,Сады Молния (конечная)
55.00432,29593,73.51334,Сады Молния
54.999116,29594,73.509686,Воинская часть (Сыропятский тракт)
54.995627,29595,73.49579,Пансионат (Сыропятский тракт)
54.995642,29596,73.496012,Пансионат (Сыропятский тракт)
54.999164,29597,73.51003,Воинская часть (Сыропятский тракт)
55.00429,29598,73.513527,Сады Молния
55.007009,29599,73.506357,Сады Молния (конечная)
54.984727,28569,73.374971,Любинский проспект
54.985136,28981,73.438422,Трамвайное кольцо (ул. 3-й разъезд)
54.984521,28982,73.433903,25-я линия (ул. Лермонтова)
54.984162,28983,73.425975,20-я линия (ул. Лермонтова)
54.983698,28984,73.416505,14-я линия
54.983614,28977,73.415513,14-я линия
54.984107,28978,73.425567,20-я линия (ул. Лермонтова)
54.984424,28979,73.432552,25-я линия (ул. Лермонтова)
54.984896,28980,73.438875,Трамвайное кольцо (ул. 3-й разъезд)
55.066207,29382,73.274701,Завод ОРЗ
55.062725,29383,73.283345,ОЗПМ
55.061406,29384,73.290972,Комбинатская
55.059261,29385,73.302949,Поворот (ул. Комбинатская)
55.055825,29386,73.301828,ОСПК
55.056976,29378,73.302683,ОСПК
55.059315,29379,73.302865,Поворот (ул. Комбинатская)
55.061608,29380,73.290053,Комбинатская
55.062681,29381,73.283865,ОЗПМ
54.9728,29494,73.383825,Магазин Радость
54.97349,29495,73.395538,СКК им. Блинова
55.061045,29605,73.435803,Северо-Восточное кладбище
54.987595,28568,73.372714,Драмтеатр
54.981086,28570,73.377157,Краеведческий музей
54.974032,28571,73.378543,Дом одежды
54.9711,28572,73.379095,Магазин 1000 мелочей
55.066246,29553,73.173815,Садоводческое товарищество Север
55.132087,29554,73.184994,"Микрорайон ""Новоалександровский"""
55.131817,29555,73.184883,"Микрорайон ""Новоалександровский"""
55.081468,29556,73.223368,ТЭЦ-4
55.066225,29557,73.173641,Садоводческое товарищество Север
54.913924,28775,73.436309,Гараж (ПАТП-4)
54.92197,28776,73.428192,10-я Чередовая
54.921992,28777,73.419442,Магазин (ул. 10-я Чередовая)
54.921955,28749,73.418809,Магазин (ул. 10-я Чередовая)
54.921935,28750,73.428936,10-я Чередовая
54.913887,28751,73.436017,Гараж (ПАТП-4)
54.983423,29687,73.374746,Партизанская
54.971965,29688,73.361549,Мотодром
54.975044,29689,73.360431,Автошкола (ул. 3-я Островская)
54.978076,29690,73.35569,Технический участок
54.981266,29691,73.353665,Большая Островка
54.981478,29692,73.353299,Большая Островка
54.977941,29693,73.355811,Технический участок
54.974836,29694,73.360569,Автошкола (ул. 3-я Островская)
54.972048,29695,73.36151,Мотодром
54.9204,29657,73.357549,ПТУ-2
54.920424,29658,73.357498,ПТУ-2
55.041118,29390,73.444149,Онкодиспансер
54.963211,29698,73.216314,Сады Нефтехимик
54.972278,29699,73.225693,Санина
54.976075,29700,73.228586,Толмачёва
54.9807,29701,73.229524,Верхнеднепровская
54.986652,29702,73.230519,8-я Солнечная
54.986499,29703,73.230431,8-я Солнечная
54.980841,29704,73.229485,Верхнеднепровская
54.975889,29705,73.228471,Толмачёва
54.971842,29706,73.225158,Санина
54.963124,29707,73.216153,Сады Нефтехимик
54.921735,29458,73.29712,Кожзавод
54.919058,29459,73.308507,Перова
54.91903,29456,73.309034,Перова
54.92184,29457,73.297282,Кожзавод
54.923687,28701,73.423127,ул.Крымская (конечная)
54.924956,28747,73.416986,Полторацкого
54.923687,28748,73.423088,ул.Крымская (конечная)
55.035494,29541,73.417282,ТК Лента
55.006775,29544,73.389697,РЭО ГАИ
55.006892,29545,73.382193,17-й Военный городок
55.008836,29546,73.374987,7-я Северная (ул. Герцена)
55.008359,29547,73.380707,Красный Пахарь
55.006834,29548,73.383193,17-й Военный городок
55.006722,29549,73.387875,РЭО ГАИ
55.006958,29550,73.397563,5-я Северная
55.035642,29552,73.417291,ТК Лента
54.995866,29576,73.401719,Трикотажная фабрика
54.994721,29577,73.395461,Школа (ул. Депутатская)
54.992844,29578,73.390408,Депутатская (по требованию)
54.988095,29579,73.385415,ДОСААФ (ул. Подгорная)
55.0015,29581,73.317158,пос. Рыбачий-3
54.998712,29582,73.322366,пос. Рыбачий-2
54.996659,29583,73.326106,пос. Рыбачий-1
54.988223,28717,73.277876,Восточная
54.990321,28718,73.273625,Ватутина
55.04284,29054,73.262091,пос. Ермак
55.04512,29055,73.270923,1-я Заводская
55.046717,29056,73.27739,Ромашка
54.993151,29374,73.542851,Сады Космос
55.005737,28326,73.396924,11-я Ремесленная
54.945368,29447,73.302322,Ключевая
54.98562,29235,73.374532,Любинский проспект
54.991361,29349,73.320388,Крупской
