stop_lat,stop_id,stop_name,stop_lon
55.983525,36363,Сады КАИ,49.040705
55.800634,36202,ж/м Алтай,48.984255
55.747785,35658,проспект Победы,49.212243
55.731496,36436,Нефтебаза,49.093366
55.825451,35867,Можайского,49.032471
55.767046,36497,Заречная,49.252309
55.776414,36623,Закиева,49.219186
55.802827,36222,Жилой массив Новое Аракчино,48.949294
55.802302,36223,ЖК Волжская гавань,48.962124
55.800659,36224,ж/м Старое Аракчино,48.969713
55.800023,36225,Переправа,48.978109
55.800588,36226,ж/м Алтай,48.984224
55.801821,36227,Поликлиника №4,48.998186
55.801606,36228,Водозабор,49.002495
55.800747,36098,Станция Лагерная,49.011089
55.800546,36099,Товарный двор,49.017466
55.800398,36100,Слесарная,49.022297
55.7997,36101,Боевая,49.033147
55.798403,36102,Набережная (ул. Боевая),49.041259
55.797674,36103,Адмиралтейская,49.050127
55.798585,36104,Урицкого,49.057591
55.799774,36105,Серп и Молот,49.067342
55.802877,36160,Речной техникум,49.073472
55.806604,36161,Гладилова,49.070657
55.812061,36162,1 Мая,49.066097
55.815129,36163,25 Октября,49.059186
55.818952,36063,Фрунзе,49.056102
55.822248,36064,Школа №70,49.050931
55.825334,35967,Сабан,49.054834
55.827165,35968,Аптека №293,49.057151
55.829443,35969,Кулахметова,49.059745
55.833028,35873,Разъезд Восстания,49.062844
55.833125,35874,Исаева,49.068037
55.833189,35875,Социально-юридический институт,49.071415
55.833397,36002,пл. Восстания,49.082475
55.834797,35636,Восстания (проспект Ибрагимова),49.090698
55.8358,35637,Кафе Солнышко,49.099952
55.835884,35638,Голубятникова,49.105909
55.835885,35639,Дружба,49.112935
55.835886,35640,Чуйкова,49.122015
55.835886,35641,39-й квартал,49.130299
55.835886,35642,Поликлиника №7,49.137067
55.835329,35643,Роддом №1,49.147267
55.831118,35644,Универсам (ул. Адоратского),49.147266
55.826981,35645,Адоратского,49.14856
55.825821,35646,Гаврилова (проспект Ямашева),49.15425
55.822925,35647,Футбольный стадион Казань Арена (Ямашева проспект),49.163933
55.818891,35648,Ветеринарная академия,49.176465
55.814378,35957,Академика Арбузова,49.185779
55.812291,35958,Торговый дом Риф Эль,49.19581
55.808995,36247,Академика Губкина,49.201284
55.804847,36248,Строительная фирма Тектоник,49.2062
55.800267,36249,Академия Правосудия,49.211616
55.791547,35592,Агропромышленный парк Казань,49.219219
55.788229,35593,Академика Глушко (проспект Победы),49.219168
55.781465,35918,проспект Альберта Камалеева (проспект Победы),49.219014
55.776669,36250,Закиева,49.220339
55.776115,36251,Азинский рынок,49.228808
55.775369,35680,Кабельное телевидение,49.231583
55.771886,35681,Минская (ул. Юлиуса Фучика),49.231412
55.769055,35682,Школа №125,49.231391
55.765431,35683,Ломжинская (ул. Юлиуса Фучика),49.231364
55.762058,35684,Чишмяле (ул. Юлиуса Фучика),49.231332
55.754199,35685,10-й микрорайон,49.231104
55.751271,35686,Кул Гали (ул. Юлиуса Фучика),49.228258
55.7489,35687,Сафиуллина (ул. Юлиуса Фучика),49.223886
55.745898,35688,Фучика,49.218346
55.743103,35921,Фучика д.14,49.211442
55.743668,35922,Фучика д.8,49.202589
55.741216,35468,Деревня Универсиады (проспект Победы),49.192021
55.734728,35469,Южная,49.180148
55.732649,35470,РКБ,49.182607
55.727958,35471,ДРКБ,49.17704
55.726005,35472,Азамат,49.174682
55.721217,35389,Ферма-2,49.171543
55.72521,35390,Азамат,49.174117
55.728264,35391,ДРКБ,49.177571
55.733049,35392,РКБ,49.183203
55.734895,35393,Южная,49.181329
55.741517,35907,Деревня Универсиады (проспект Победы),49.193521
55.74341,35908,Фучика д.8,49.202623
55.742909,35909,Фучика д.14,49.211315
55.745549,35659,Фучика,49.218054
55.74898,35660,Сафиуллина (ул. Юлиуса Фучика),49.224379
55.751608,35661,Кул Гали (ул. Юлиуса Фучика),49.229223
55.755094,35662,10-й микрорайон,49.231369
55.757097,35663,Завойского,49.231427
55.763432,35664,Чишмяле (ул. Юлиуса Фучика),49.231589
55.767264,35665,Ломжинская (ул. Юлиуса Фучика),49.231617
55.769656,35666,Школа №125,49.231634
55.771799,35667,Минская (ул. Юлиуса Фучика),49.23165
55.776174,36252,Азинский рынок,49.230256
55.77681,35911,Закиева,49.219545
55.781618,35581,проспект Альберта Камалеева (проспект Победы),49.219655
55.788198,35582,Академика Глушко (проспект Победы),49.219805
55.791948,35583,Агропромышленный парк Казань,49.219862
55.801145,36253,Академия Правосудия,49.211304
55.80503,36254,Строительная фирма Тектоник,49.206711
55.81045,35951,Академика Губкина,49.200284
55.812653,35952,Торговый дом Риф Эль,49.195815
55.814802,35953,Академика Арбузова,49.18546
55.819062,35559,Ветеринарная академия,49.176841
55.823389,35560,Футбольный стадион Казань Арена (Ямашева проспект),49.164318
55.826036,35561,Гаврилова (проспект Ямашева),49.154448
55.828397,35562,Адоратского,49.147424
55.831821,35563,Универсам (ул. Адоратского),49.147425
55.836065,35698,Роддом №1,49.1462
55.836066,35699,Поликлиника №7,49.138208
55.836066,35538,39-й квартал,49.130504
55.836065,35539,Чуйкова,49.120191
55.836065,35540,Дружба,49.111734
55.836065,35541,Голубятникова,49.105595
55.835972,35361,Кафе Солнышко,49.099896
55.834681,36006,Восстания (проспект Ибрагимова),49.088954
55.833471,35861,пл. Восстания,49.078325
55.833328,35862,Социально-юридический институт,49.070674
55.83327,35863,Исаева,49.067628
55.832675,35984,Разъезд Восстания,49.061448
55.827897,35985,Аптека №293,49.057651
55.824864,36069,Сабан,49.053809
55.82223,36070,Школа №70,49.050477
55.819165,36062,Болотникова,49.054054
55.81463,36151,Парк Петрова,49.058075
55.812582,36152,1 Мая,49.063919
55.811412,36153,Льнокомбинат,49.066604
55.806453,36154,Гладилова,49.070731
55.802984,36155,Речной техникум,49.072902
55.799898,36090,Серп и Молот,49.067818
55.798853,36091,Урицкого,49.059265
55.79772,36092,Адмиралтейская,49.049982
55.798221,36093,Набережная (ул. Боевая),49.042225
55.799664,36094,Боевая,49.034255
55.800373,36095,Слесарная,49.023268
55.800591,36096,Товарный двор,49.017108
55.800828,36097,Станция Лагерная,49.010254
55.801613,36200,Водозабор,49.002848
55.801854,36201,Поликлиника №4,48.997127
55.800368,36203,Переправа,48.977383
55.800701,36204,ж/м Старое Аракчино,48.969646
55.802289,36205,ЖК Волжская гавань,48.962336
55.802912,36206,Жилой массив Новое Аракчино,48.948977
55.803715,36207,Затон,48.94256
55.806046,36208,Гипсовый завод,48.936286
55.773981,36193,Речной порт,49.093282
55.773177,36194,Автовокзал,49.101056
55.776136,35837,Тинчурина,49.107189
55.779486,35838,Татарстан,49.111909
55.781639,35893,Каюма Насыри,49.114848
55.786781,35894,Колхозный рынок (ул. Московская),49.1105
55.789176,35895,Чернышевского (ул. Московская),49.107622
55.793127,35982,ЦУМ,49.102876
55.794709,35983,Дворец спорта,49.100976
55.796769,35717,Центральный стадион,49.103235
55.815066,35718,Энергетический университет,49.100372
55.820422,35719,ТРК Тандем (Декабристов),49.090416
55.826606,35915,ДК Химиков,49.084317
55.829871,35700,Метро Яшьлек,49.081298
55.834012,35701,пл. Восстания,49.080614
55.837615,35702,Гагарина (ул. Декабристов),49.081029
55.841424,35703,Метро Северный вокзал,49.082661
55.84913,35704,Дементьева,49.084498
55.856119,35706,КМПО,49.100357
55.857715,35707,Караваево-2,49.105586
55.862993,36573,Караваево,49.106859
55.86599,36574,Академика Павлова,49.097453
55.867342,36575,Годовикова,49.092898
55.86721,36001,Айдарова (ул. Ленинградская),49.087787
55.865338,35807,Молодёжная,49.078079
55.865682,35808,Центрально-Мариупольская (автобус),49.068717
55.869105,36576,Баня №9,49.068701
55.871722,36577,Мусы Бигиева,49.068987
55.875211,36578,Школа №105,49.069377
55.8777,36579,Магазин №1,49.069203
55.877876,36580,Литвинова,49.063174
55.878919,36581,Магазин №2,49.054549
55.879127,36582,Давыдова (ул. Литвинова),49.046947
55.879399,36583,ж/м Северный,49.041221
55.879079,36584,Давыдова (ул. Литвинова),49.04743
55.87888,36585,Магазин №2,49.054698
55.877878,36586,Литвинова,49.061769
55.877677,36587,Магазин №1,49.068924
55.875183,36588,Школа №105,49.069309
55.87147,36589,Мусы Бигиева,49.068895
55.869459,36590,Баня №9,49.068676
55.865973,36591,Центрально-Мариупольская (автобус),49.068356
55.865151,35757,Молодёжная,49.077788
55.86329,35623,Баня №14,49.078376
55.862737,35710,Ленинградская,49.085775
55.866446,36007,Айдарова (ул. Ленинградская),49.087677
55.867178,36592,Годовикова,49.092928
55.865732,36593,Академика Павлова,49.097568
55.862923,36594,Караваево,49.106518
55.858831,36595,Максимова,49.102329
55.855595,35627,Кошевого,49.098533
55.853126,35628,Метро Авиастроительная,49.084299
55.84743,35629,Дементьева,49.08392
55.841448,35630,Метро Северный вокзал,49.082225
55.838206,35631,Гагарина (ул. Декабристов),49.080716
55.83294,35632,пл. Восстания,49.080106
55.828276,35364,Метро Яшьлек,49.082104
55.825951,35365,ДК Химиков,49.084634
55.819976,35366,ТРК Тандем (Декабристов),49.090684
55.816929,35367,Энергетический университет,49.098533
55.813955,35368,Молодёжный центр,49.100699
55.797052,35545,Центральный стадион,49.101917
55.790956,36038,Чернышевского (ул. Лево-Булачная),49.108478
55.788554,36039,Педагогический университет,49.111806
55.785597,36040,Комбинат Здоровье,49.116316
55.782097,35832,Театр им. Камала,49.11477
55.779855,35833,Тукая,49.11171
55.778698,35834,Татарстан,49.110181
55.775919,35835,Тинчурина,49.106443
55.773376,36192,Автовокзал,49.098635
55.787,35551,Метро пл. Тукая,49.122191
55.78792,36041,Бутлерова,49.131135
55.789508,36042,Толстого (ул. Бутлерова),49.137136
55.788968,36043,Волкова,49.143634
55.788284,35376,Кинотеатр Мир,49.148513
55.787784,35876,Вишневского,49.153319
55.7871,35877,Достоевского,49.159731
55.785773,35649,Аделя Кутуя,49.170704
55.783088,35650,Кафе Сирень,49.170474
55.779796,35651,Гвардейская,49.171783
55.770545,35652,Сады,49.176074
55.766517,35653,Даурская (ул. Рихарда Зорге),49.180203
55.763252,35654,Рихарда Зорге,49.185854
55.759861,35655,Метро Горки,49.191667
55.756489,35656,Братьев Касимовых,49.19747
55.753173,35657,Гарифьянова,49.203175
55.744791,36330,Фучика,49.217357
55.741691,36331,Габишева,49.22717
55.745164,36332,Алтан,49.233591
55.746914,36333,9-й микрорайон,49.236825
55.750619,36334,Кул Гали (ул. Габишева),49.242699
55.749074,36336,Рассветная,49.258677
55.745178,36337,Овражная,49.263861
55.743504,36338,Центральная (Салмачи),49.273617
55.742758,36339,2-й поворот,49.282707
55.742089,36340,Салмачи,49.291754
55.740751,36341,1-я Зелёная,49.297805
55.737459,36342,5-я Зелёная,49.303325
55.72955,36343,Новые Салмачи,49.316525
55.72544,36344,Микрорайон Яшьлек,49.324908
55.718496,36345,30-й квартал,49.340024
55.713803,36346,ЖК Светлый,49.34984
55.717583,36347,пос. Куюки,49.354309
55.713938,36348,ЖК Светлый,49.349134
55.718679,36349,30-й квартал,49.339623
55.725134,36350,Микрорайон Яшьлек,49.325522
55.729401,36351,Новые Салмачи,49.316937
55.737572,36352,5-я Зелёная,49.303238
55.740497,36353,1-я Зелёная,49.298321
55.74216,36354,Салмачи,49.291428
55.742812,36355,2-й поворот,49.282495
55.743569,36356,Центральная (Салмачи),49.273226
55.745156,36357,Овражная,49.263992
55.74948,36358,Рассветная,49.256133
55.750314,36359,ИЖС Восточный,49.246879
55.750781,36360,Кул Гали (ул. Габишева),49.242393
55.746796,36361,9-й микрорайон,49.236076
55.744982,36157,Алтан,49.232803
55.741555,36158,Габишева,49.226536
55.743832,36159,8-й микрорайон,49.219638
55.747974,35689,проспект Победы,49.212517
55.753768,35690,Гарифьянова,49.202749
55.757206,35691,Братьев Касимовых,49.196836
55.759841,35692,Метро Горки,49.1923
55.764226,35693,Рихарда Зорге,49.184667
55.76664,35694,Даурская (ул. Рихарда Зорге),49.180519
55.770289,35695,Сады,49.176729
55.779852,35696,Гвардейская,49.172155
55.782728,35697,Кафе Сирень,49.170826
55.787278,35852,Аделя Кутуя,49.169017
55.787155,35853,Достоевского,49.160507
55.787621,35854,Товарищеская,49.156133
55.788928,35377,Шмидта,49.152201
55.792637,35452,ЦПКиО им. Горького,49.154686
55.790012,35828,Чеховский рынок,49.147761
55.789457,35829,Груздева,49.144429
55.789926,35830,Толстого (ул. Бутлерова),49.138454
55.787573,35831,Бутлерова,49.129536
55.78728,35713,Метро пл. Тукая,49.122022
55.788971,36088,Ж/д вокзал,49.101708
55.790994,36089,Саид-Галеева,49.099599
55.794464,35546,Дворец спорта,49.101077
55.79315,35547,ЦУМ,49.102656
55.790005,35548,Чернышевского (ул. Московская),49.106434
55.787008,35549,Колхозный рынок (ул. Московская),49.110035
55.782891,35550,Театр им. Камала,49.116557
55.792847,35552,Университет (ул. Пушкина),49.12501
55.793937,35553,Театр им. Тинчурина,49.129845
55.79378,35554,Гоголя (ул. Горького),49.132954
55.793461,35555,Толстого (ул. Горького),49.137758
55.792683,35556,ЦПКиО им. Горького,49.151633
55.792959,35411,Абжалилова,49.164261
55.79437,35412,Кооперативный институт,49.172369
55.796739,35413,Октябрьский городок,49.175786
55.801065,35414,Советская пл.,49.182833
55.806146,35415,Пионерская,49.184212
55.809901,35416,Попова,49.182378
55.812338,35417,Национальный архив,49.181245
55.81974,35418,Халитова,49.18355
55.820204,35443,Халитова,49.182637
55.81415,35444,Академика Арбузова (ул. Сибирский тракт),49.180106
55.811469,35445,Национальный архив,49.181353
55.809052,35446,Попова,49.182476
55.805238,35447,Пионерская,49.184378
55.800695,35448,Советская пл.,49.181535
55.797419,35449,Октябрьский городок,49.176315
55.795452,35450,Кооперативный институт,49.173479
55.793164,35451,Абжалилова,49.164052
55.79291,35725,ЦПКиО им. Горького,49.151638
55.795165,35726,Толстого (ул. Карла Маркса),49.136777
55.795579,35727,Гоголя (ул. Карла Маркса),49.132276
55.795488,35728,пл. Свободы,49.125355
55.793212,35729,Университет (ул. Пушкина),49.124789
55.782958,35981,Театр им. Камала,49.115944
55.734788,36437,Тихорецкая,49.0989
55.730854,36438,Крутовская,49.114765
55.730778,36439,2-я Тихорецкая,49.120731
55.733335,35784,Техническая,49.135119
55.733168,35785,Глазунова,49.144878
55.735243,35786,Проектная,49.144987
55.737209,35787,Авангардная,49.145091
55.740532,35788,Регистрационная палата,49.145266
55.742867,35789,Кулагина,49.141743
55.742955,35790,Вторчермет,49.135713
55.744042,35791,Завод Искож,49.132876
55.748168,35792,Модельная,49.132228
55.755387,35793,Татмебельбыт,49.130666
55.762762,35794,Железнодорожная,49.128329
55.766107,35795,пл. Вахитова,49.127651
55.769723,35796,Хади Такташ,49.13287
55.77264,35456,Филармония,49.140451
55.768722,35457,Ипподромная,49.14552
55.765073,35458,Халева,49.148841
55.764644,36440,Метро Аметьево,49.168165
55.764716,36441,Даурская (ул. Даурская),49.174354
55.765371,36442,Завод ЖБИ-2,49.180081
55.759867,35464,Метро Горки,49.188723
55.753881,35465,Мавлютова,49.188983
55.749691,35466,Медучилище,49.189572
55.746225,35467,Академика Парина,49.190546
55.745431,36400,Сыртлановой (проспект Победы),49.200704
55.749319,35743,Метро Проспект Победы,49.209516
55.776962,36107,Кабельное телевидение,49.231833
55.779693,36108,Вагапова (ул. Академика Сахарова),49.230175
55.782594,36109,Академика Сахарова (ул. Хайдара Бигичева),49.224574
55.785396,36110,Детский сад №185,49.223627
55.786811,36111,Хайдара Бигичева,49.224246
55.789791,35672,Академика Глушко (ул. Хайдара Бигичева),49.224678
55.791427,35673,Джаудата Файзи,49.225653
55.79253,35674,пер. Дуслык,49.229316
55.791364,35675,Джаудата Файзи,49.22542
55.789669,35676,Академика Глушко (ул. Хайдара Бигичева),49.224566
55.786512,36086,Хайдара Бигичева,49.223979
55.784983,36087,Детский сад №185,49.223515
55.782159,35934,Академика Сахарова (ул. Хайдара Бигичева),49.224604
55.780121,35935,Вагапова (ул. Академика Сахарова),49.2295
55.749597,36406,Метро Проспект Победы,49.2075
55.744843,36407,Сыртлановой (проспект Победы),49.198723
55.74177,35394,Деревня Универсиады (проспект Победы),49.192205
55.745726,35395,Академика Парина,49.190799
55.749214,35396,Медучилище,49.189819
55.754576,35397,Мавлютова,49.189064
55.76525,36428,Завод ЖБИ-2,49.179596
55.764792,36429,Даурская (ул. Даурская),49.173949
55.764637,36430,Метро Аметьево,49.167938
55.764873,35404,Халева,49.149327
55.768491,35405,Ипподромная,49.146035
55.772043,35406,Филармония,49.142106
55.772947,35770,Павлюхина,49.138704
55.770061,35771,Хади Такташ,49.133223
55.765975,35773,пл. Вахитова,49.12735
55.763079,35774,Железнодорожная,49.127817
55.75563,35775,Татмебельбыт,49.130246
55.749576,35776,Модельная,49.131688
55.743906,35777,Завод Искож,49.132577
55.742751,35778,Вторчермет,49.136804
55.742671,35779,Кулагина,49.142274
55.740322,35780,Регистрационная палата,49.144953
55.738629,35781,Авангардная,49.144864
55.735629,35782,Проектная,49.144706
55.733712,35783,Глазунова,49.144608
55.733636,36431,Техническая,49.13496
55.730805,36432,2-я Тихорецкая,49.121389
55.734764,36433,Тихорецкая,49.097943
55.731354,36434,Нефтебаза,49.093085
55.727,36435,Новое Победилово,49.087401
55.785899,35714,Комбинат Здоровье,49.116893
55.788745,35715,Педагогический университет,49.112554
55.792602,35716,Чернышевского (ул. Право-Булачная),49.107548
55.823241,35858,Гуманитарный институт,49.095476
55.826943,35721,Магазин Океан,49.102071
55.826919,35722,Парк Победы,49.108886
55.82832,36178,Мусина (проспект Ямашева),49.12099
55.827231,35912,Адоратского,49.146208
55.827246,35383,Фатыха Амирхана,49.132259
55.827269,35384,Мусина (проспект Ямашева),49.11936
55.827269,35385,Парк Победы,49.109792
55.827265,35913,Магазин Океан,49.100028
55.825884,35914,Декабристов,49.088442
55.834385,35419,2-й переезд (ул. Сибирский тракт),49.19374
55.839091,35420,Карьер,49.19829
55.842558,35421,Ноксинская,49.202081
55.846553,35733,Нагорный,49.206537
55.859774,35734,Строительное училище,49.214688
55.863119,35735,Интернат (Дербышки),49.220552
55.864977,35736,Магазин Комсомольский,49.225217
55.868047,36117,Раздольная,49.23772
55.870159,36118,Киндери,49.243488
55.873141,36119,Школа №166,49.248085
55.874931,36120,АЗС (ул. Азина),49.250831
55.875116,36311,Автодром Высокая Гора,49.275847
55.864788,36312,Киндерское кладбище,49.303013
55.844441,36313,Заводская (Чебакса),49.331747
55.845009,36314,ж/м Чебакса,49.320624
55.844456,36315,Заводская (Чебакса),49.331968
55.864641,36316,Киндерское кладбище,49.303557
55.875521,36317,Автодром Высокая Гора,49.274695
55.874708,36134,АЗС (ул. Азина),49.250278
55.872718,36135,Школа №166,49.247226
55.870309,36136,Киндери,49.24351
55.868198,36137,Раздольная,49.237918
55.867094,36318,Советская,49.232621
55.864569,36319,Магазин Комсомольский,49.223795
55.862814,35739,Интернат (Дербышки),49.219704
55.859626,35740,Строительное училище,49.21426
55.845223,35439,Нагорный,49.205607
55.841633,35440,Ноксинская,49.200737
55.83904,35441,Карьер,49.197965
55.834703,35442,2-й переезд (ул. Сибирский тракт),49.193578
55.821094,35558,Халитова,49.182998
55.748257,35338,9-й микрорайон,49.237855
55.744997,35339,Сафиуллина (ул. Юлиуса Фучика),49.23247
55.741741,35340,Габишева,49.226513
55.741763,35341,8-й микрорайон,49.222938
55.744628,35342,Фучика,49.218013
55.747887,35343,проспект Победы (трамвай),49.212411
55.753354,35344,Гарифьянова,49.203208
55.756343,35345,Братьев Касимовых,49.198064
55.760034,35346,Метро Горки,49.191713
55.763988,35347,Рихарда Зорге,49.184864
55.765782,35348,Даурская (ул. Рихарда Зорге),49.181668
55.770081,35349,Сады,49.176737
55.779767,35350,Гвардейская,49.172046
55.782606,35351,Кафе Сирень,49.170656
55.78682,35352,Аделя Кутуя,49.171017
55.793157,35353,Патриса Лумумбы,49.17156
55.79561,35354,Кооперативный институт,49.173973
55.800687,35355,Советская пл.,49.181836
55.805423,35356,Пионерская,49.184468
55.809298,35357,Попова,49.182544
55.811786,35358,Национальный архив,49.181387
55.819953,35359,Халитова,49.183527
55.820192,35317,Халитова,49.183265
55.812227,35318,Национальный архив,49.181116
55.809605,35319,Попова,49.182335
55.805856,35320,Пионерская,49.184179
55.800988,35321,Советская пл.,49.182358
55.79601,35322,Кооперативный институт,49.174468
55.793108,35323,Патриса Лумумбы,49.171493
55.788008,35324,Аделя Кутуя,49.171056
55.782873,35325,Кафе Сирень,49.170616
55.779587,35326,Гвардейская,49.172112
55.770589,35327,Сады,49.176212
55.766319,35328,Даурская (ул. Рихарда Зорге),49.180711
55.764051,35329,Рихарда Зорге,49.184664
55.75997,35330,Метро Горки,49.191735
55.756425,35331,Братьев Касимовых,49.197836
55.753637,35332,Гарифьянова,49.202631
55.747887,35333,проспект Победы (трамвай),49.212321
55.744534,35334,Фучика,49.218087
55.741859,35335,8-й микрорайон,49.222684
55.741561,35336,Габишева,49.226277
55.744937,35337,Сафиуллина (ул. Юлиуса Фучика),49.232452
55.759773,35398,Метро Горки,49.188839
55.757085,35399,Карбышева (ул. Танковая),49.17823
55.754631,35400,Комарова,49.170771
55.752795,35401,Латышских Стрелков,49.166267
55.753549,35402,Танковая,49.161433
55.761258,35403,Казанская ярмарка,49.152326
55.773595,35407,Павлюхина,49.140136
55.776105,35408,Метро Суконная Слобода,49.143785
55.784253,35409,Калинина,49.150128
55.791994,35410,ЦПКиО им. Горького,49.153205
55.846404,35422,Нагорный,49.206811
55.847488,35423,Круговая,49.216547
55.848075,35424,Школа №124,49.219649
55.848939,35425,Магазин (Нагорный),49.224306
55.849074,35426,Таёжная,49.227452
55.844223,35427,Жилой массив Нагорный,49.230284
55.840066,35428,Машиностроителей-2,49.232868
55.840699,35429,Машиностроителей,49.236091
55.841811,35430,ж/м Новая Сосновка,49.240315
55.840805,35431,Машиностроителей,49.236436
55.840088,35432,Машиностроителей-2,49.232789
55.844293,35433,Жилой массив Нагорный,49.230309
55.849319,35434,Таёжная,49.227388
55.850568,35435,Жилой массив Нагорный-2,49.232947
55.848944,35436,Магазин (Нагорный),49.223979
55.848204,35437,Школа №124,49.220004
55.847544,35438,Круговая,49.216492
55.788947,35453,Шмидта,49.151803
55.784383,35454,Калинина,49.149795
55.776139,35455,Метро Суконная Слобода,49.14332
55.760543,35459,Казанская ярмарка,49.152707
55.753396,35460,Танковая,49.161357
55.752184,35461,Латышских Стрелков,49.165358
55.753897,35462,Комарова,49.170251
55.756914,35463,Карбышева (ул. Танковая),49.178914
55.899989,36409,Новониколаевский,48.963038
55.866841,36474,пос. Новая Тура,48.856516
55.855707,36475,Залесный-2,48.867342
55.853627,36476,АЗС (ул. Залесная),48.876654
55.850057,36053,Залесное шоссе,48.892783
55.849422,36054,Залесный,48.896866
55.848144,36055,КЭМП,48.906734
55.847086,36077,Ремплер (ул. Залесная),48.916671
55.848394,36078,КЭМП,48.906577
55.84979,36079,Залесный,48.895804
55.850622,36469,Залесное шоссе,48.891167
55.853913,36470,АЗС (ул. Залесная),48.876453
55.8556,36471,Залесный-2,48.868906
55.867034,36472,пос. Новая Тура,48.856828
55.883843,36473,Осиново-2,48.86149
55.899685,36411,Новониколаевский,48.96284
55.836063,36004,Гаврилова (ул. Чуйкова),49.157245
55.836064,36005,Лаврентьева (ул. Маршала Чуйкова),49.152096
55.860021,35708,Максимова,49.098845
55.861468,35709,Лукина,49.089927
55.871116,36008,Пржевальского,49.088957
55.874342,36009,Ударная,49.08837
55.875298,36010,Баранова,49.092027
55.875588,36011,Сахалинская,49.096482
55.879034,36012,Камчатская,49.101006
55.881137,36013,Сады-1,49.104999
55.886269,36014,Сады-2,49.11445
55.891949,36015,Садовое общество КАПО-11,49.124702
55.896276,36016,Сельмаг (Кадышево),49.127352
55.900962,36017,Правление,49.129257
55.904116,36018,Кадышево,49.133604
55.914383,36019,Поворот на пос. Щербаковка,49.140758
55.917395,36020,Кафе Ак Барс,49.150759
55.917641,35988,Кафе Ак Барс,49.150059
55.920794,35989,Садовые общества,49.144843
55.914566,35990,Поворот на пос. Щербаковка,49.140708
55.90378,35991,Кадышево,49.132925
55.900999,35992,Правление,49.129165
55.896186,35993,Сельмаг (Кадышево),49.127205
55.891838,35994,Садовое общество КАПО-11,49.124554
55.886076,35995,Сады-2,49.113939
55.880816,35996,Сады-1,49.104361
55.878917,35997,Камчатская,49.099938
55.875322,35998,Баранова,49.091838
55.874256,35999,Ударная,49.088274
55.870671,36000,Пржевальского,49.088759
55.861916,35624,Ленинградская,49.086761
55.861131,35625,Лукина,49.091603
55.859724,35626,Максимова,49.100271
55.835885,36003,Роддом №1,49.145109
55.835884,35565,Лаврентьева (ул. Маршала Чуйкова),49.151789
55.835883,35566,Гаврилова (ул. Чуйкова),49.158433
55.901466,108212,АЗС (Щербаково),49.196577
55.909502,108213,АЗС Щербаковка,49.169905
55.913185,108214,Голубые Озёра,49.162821
55.915282,108215,Садовое общество Кактус,49.158553
55.915184,108216,Садовое общество Кактус,49.158341
55.913093,108217,Голубые Озёра,49.162597
55.901381,108218,АЗС (Щербаково),49.196278
55.790398,35896,Яхина,49.102578
55.778381,35839,Юнусовская пл.,49.114777
55.774964,35840,Ахтямова,49.118158
55.772582,35841,Сайдашева,49.120467
55.731298,35897,ТД Аромат,49.149025
55.729838,35898,Борисково,49.152941
55.726716,36451,Борисковская,49.151037
55.717782,35899,Артель Волга,49.150784
55.710619,35900,Дом культуры,49.148341
55.707739,35901,Магазин (Мирный),49.147307
55.70597,35902,Поликлиника №3,49.146398
55.702053,35903,Виталия Синицына,49.140476
55.697769,36452,Школа №129,49.13506
55.694215,36449,Мирный,49.142394
55.697558,36450,Школа №129,49.135593
55.701882,35882,Виталия Синицына,49.140301
55.705747,35883,Поликлиника №3,49.146145
55.708024,35884,Магазин (Мирный),49.147465
55.709925,35885,Дом культуры,49.148124
55.726063,35886,Борисковская,49.15084
55.730461,35887,Борисково,49.152525
55.731407,35888,ТД Аромат,49.148814
55.773008,35889,Сайдашева,49.120237
55.775268,35890,Ахтямова,49.118043
55.7785,35891,По требованию (ул. Габдуллы Тукая),49.114842
55.779888,35892,Юнусовская пл.,49.113465
55.826477,35871,Горьковское шоссе,49.042871
55.831706,35872,Тасма,49.05262
55.826155,36420,Серова (автобус),49.064914
55.826223,36421,Блюхера,49.070871
55.829999,36422,Усманова,49.073698
55.832795,36423,Восход,49.073533
55.809422,35959,Академика Губкина,49.199741
55.806639,35960,Зур Урам,49.192849
55.804038,35961,Кафе Полёт,49.188198
55.780959,36258,Парижской Коммуны,49.11238
55.783739,36259,Худякова (по требованию),49.109656
55.785595,36260,Колхозный рынок (ул. Габдуллы Тукая),49.107773
55.806247,36424,Шоссейная,49.075222
55.809711,36425,Мулланура Вахитова (ул. Большая Крыловка),49.075603
55.814679,36426,Большая Крыловка (ул. Краснококшайская),49.070798
55.816838,36427,Краснококшайская,49.064943
55.823922,36071,Идель,49.045831
55.825543,35720,Декабристов,49.08857
55.826928,35723,Мусина (проспект Ямашева),49.121924
55.826964,35724,Фатыха Амирхана,49.135487
55.840147,35360,Короленко (ул. Гагарина),49.100816
55.83724,35763,Кафе Солнышко,49.101169
55.830643,36044,Магазин Новинка,49.100872
55.826296,36045,Фатыха Амирхана,49.133431
55.822639,35766,Четаева,49.133274
55.818566,35767,Чистопольская,49.133255
55.81504,35768,Сибгата Хакима,49.133297
55.798734,35769,Мост Миллениум (по требованию),49.152971
55.79637,35855,пл. Свободы,49.123519
55.798237,35856,КАИ (ул. Большая Красная),49.115159
55.799916,35857,Батурина,49.108718
55.837894,35760,Гагарина (проспект Ибрагимова),49.089115
55.838593,35761,Октябрьская,49.093578
55.831283,36065,Рынок стройматериалов,49.195106
55.827249,36066,Вещевой рынок,49.195572
55.821267,36067,ТК Советский,49.193244
55.818713,36068,Журналистов (ул. Журналистов),49.191237
55.833139,35864,Разъезд Восстания,49.060637
55.831436,35865,Тасма,49.050848
55.825763,35866,Горьковское шоссе,49.042564
55.823037,36061,Светлая,49.045717
55.828956,35859,проспект Ибрагимова (ул. Волгоградская),49.092871
55.831163,35363,Волгоградская (проспект Ибрагимова),49.0906
55.829784,35860,Метро Яшьлек,49.083834
55.82227,35868,Травмпункт Кировского района,49.032231
55.822347,35869,Травмпункт Кировского района,49.031886
55.825824,35870,Можайского,49.033435
55.829397,35633,Метро Яшьлек,49.08294
55.830532,35634,Волгоградская (проспект Ибрагимова),49.091086
55.829495,35542,проспект Ибрагимова (ул. Волгоградская),49.091988
55.82341,35543,Гуманитарный институт,49.094761
55.821076,35544,ТРК Тандем (проспект Ибрагимова),49.095824
55.799373,35369,Цирк,49.099288
55.798526,35370,Батурина,49.1093
55.797217,35371,КАИ (ул. Карла Маркса),49.11361
55.796286,35372,пл. Свободы,49.123737
55.795548,35373,Гоголя (ул. Карла Маркса),49.131619
55.794974,35374,Толстого (ул. Карла Маркса),49.137832
55.790342,35375,Чеховский рынок,49.14741
55.676079,35878,Центральная (Петровский),49.115667
55.672002,35879,пос. Петровский,49.123308
55.676499,35880,Матюшинская,49.125628
55.697791,35881,Школа №129,49.134116
55.697752,35904,Школа №129,49.133974
55.676737,35905,Матюшинская,49.125337
55.678359,35906,Школьная,49.120877
55.818357,36261,Метро Козья Слобода,49.099646
55.81932,36262,Бондаренко,49.106159
55.81932,36263,Абсалямова,49.11039
55.819321,36264,Меридианная,49.116339
55.819322,36265,Мусина (ул. Чистопольская),49.122128
55.819322,36266,Татнефть Арена,49.127023
55.819321,36267,СК Олимп,49.143569
55.816949,36268,Дворец водных видов спорта,49.147505
55.816775,36269,Дворец водных видов спорта,49.147982
55.819456,36270,Адоратского д. 1а,49.146397
55.819456,36271,СК Олимп,49.141714
55.820262,35381,Чистопольская,49.134216
55.823985,35382,Четаева,49.134122
55.830938,35797,Лаврентьева (ул. Фатыха Амирхана),49.134029
55.836385,35954,Роддом №1,49.147427
55.839045,35955,Универсам №2,49.147428
55.843029,35569,Брикетный,49.14654
55.843029,35570,25-й квартал,49.140331
55.842236,35572,Авторынок,49.13347
55.838932,35537,Детская библиотека,49.133469
55.835388,35764,Магазин Спорттовары,49.133469
55.831038,35765,Лаврентьева (ул. Фатыха Амирхана),49.133376
55.819637,36272,Чистопольская,49.132155
55.819457,36273,Татнефть Арена,49.125164
55.819456,36274,Мусина (ул. Чистопольская),49.120209
55.819456,36275,Меридианная,49.115094
55.819455,36276,Абсалямова,49.109158
55.819002,36277,Бондаренко,49.101878
55.848191,35916,Дементьева,49.085795
55.853226,35917,Институт (ул. Дементьева),49.095591
55.861587,35758,Ленинградская,49.085069
55.857248,35759,Побежимова (ул. Копылова),49.08459
55.788758,36106,Ж/д вокзал,49.101868
55.785613,36239,Колхозный рынок (ул. Габдуллы Тукая),49.106787
55.783022,36240,Худякова (по требованию),49.110232
55.871104,36138,ж/м Дербышки,49.224501
55.866905,36139,Магазин Восток,49.218959
55.780933,35978,Театр Кукол,49.130835
55.78271,35979,Айдинова,49.127169
55.785478,35980,Сквер Тукая,49.121806
55.785482,35970,Сквер Тукая,49.121635
55.782738,35971,Айдинова,49.126941
55.779552,35972,Театр Кукол,49.133513
55.86774,35737,Стадион Ракета,49.232174
55.878895,36382,Сахалинская,49.093657
55.882152,36383,Магазин (ул. Песочная),49.091018
55.88661,36384,Песочная,49.087358
55.890431,36385,ж/м Сухая река,49.087023
55.896954,36386,Садовое общество Тасма-5,49.08369
55.899374,36387,Тропинка,49.082106
55.902679,36388,Садовое общество КМПО-8,49.079038
55.905335,36389,Садовое общество КМПО-14,49.070177
55.913613,36390,пос. Победа,49.061243
55.918636,36391,ДОЛ Пионер,49.056321
55.922394,36392,ДОЛ Родничок,49.053362
55.926495,36393,ДОЛ Берёзка,49.050167
55.932911,36394,Поворот на Дальние сады,49.044677
55.943176,36395,Озёрный-2,49.032699
55.968964,36396,Детский сад Айгуль,49.040696
55.966647,36397,По требованию (Шигали),49.058547
55.973087,36398,Советская,49.053513
55.977422,36399,пос. Шигали,49.047668
55.988751,36362,пос. Берновые Ковали,49.042494
55.977549,36364,пос. Шигали,49.047429
55.973179,36365,Советская,49.053282
55.966662,36366,По требованию (Шигали),49.058476
55.969021,36367,Детский сад Айгуль,49.040639
55.943215,36368,Озёрный-2,49.032593
55.932923,36369,Поворот на Дальние сады,49.044595
55.926304,36370,ДОЛ Берёзка,49.050259
55.922634,36371,ДОЛ Родничок,49.053223
55.918771,36372,ДОЛ Пионер,49.056074
55.914232,36373,пос. Победа,49.0607
55.905336,36374,Садовое общество КМПО-14,49.069868
55.901915,36375,Садовое общество КМПО-8,49.079683
55.899214,36376,Тропинка,49.082133
55.897627,36377,Садовое общество Тасма-5,49.083181
55.889767,36378,ж/м Сухая река,49.087088
55.886309,36379,Песочная,49.087289
55.881975,36380,Магазин (ул. Песочная),49.091256
55.878432,36381,Сахалинская,49.093886
55.737911,36454,ЖК Экопарк Дубрава,49.202703
55.738727,36455,Дубравная д.23,49.212541
55.739192,36456,Дубравная д.11,49.218155
55.739815,36457,Дубравная,49.222874
55.751462,36458,Кул Гали (ул. Габишева),49.240956
55.756921,36459,Восточный,49.241113
55.758281,36460,Магазин 777,49.238471
55.758056,36461,Завойского,49.234324
55.827683,35386,Магазин Океан,49.101107
55.831702,35387,Магазин Новинка,49.101287
55.825119,36072,Горьковское шоссе,49.040296
55.825935,36073,Можайского,49.033265
55.826829,36074,Магазин Факел,49.025563
55.83802,36075,Лебяжье,48.964802
55.845953,36076,Олимпиец,48.925338
55.844699,36294,Железнодорожный техникум,48.892438
55.836947,36295,Берёзовая роща,48.893528
55.832349,36296,Детский санаторий,48.892775
55.828965,36297,Стадион Локомотив,48.893404
55.820991,36298,ДК Железнодорожников,48.898525
55.82026,36299,Красикова,48.893211
55.819861,36300,Бирюзовая,48.886309
55.819323,36301,НГЧ-8,48.878616
55.82557,36302,Профилакторий,48.862473
55.819408,36303,НГЧ-8,48.876233
55.819812,36304,Бирюзовая,48.886115
55.820016,36305,Красикова,48.894147
55.820756,36306,ДК Железнодорожников,48.89871
55.829132,36307,Стадион Локомотив,48.893326
55.832436,36308,Детский санаторий,48.892905
55.837151,36309,Берёзовая роща,48.893784
55.845172,36310,Железнодорожный техникум,48.892757
55.846701,36056,Ремплер (ул. Залесная),48.917859
55.845678,36057,Олимпиец,48.925632
55.837992,36058,Лебяжье,48.963761
55.826761,36059,Магазин Факел,49.025363
55.757918,36462,Завойского,49.234477
55.756933,36463,Восточный,49.240769
55.751227,36464,Кул Гали (ул. Габишева),49.240604
55.739712,36465,Дубравная,49.221264
55.739313,36466,Дубравная д.11,49.218083
55.738727,36467,Дубравная д.23,49.211014
55.737947,36468,ЖК Экопарк Дубрава,49.201613
55.86646,35505,Химическая,49.001268
55.86712,35506,Химиков,49.010189
55.86693,35507,Кинотеатр Юность,49.01818
55.866754,35508,Завод сантехзаготовок,49.02467
55.866609,35509,Серафимовича,49.030038
55.866423,35510,Пожарского,49.036894
55.866263,35511,Суворова,49.042706
55.870069,35512,Давыдова (ул. Айдарова),49.047083
55.870161,35513,Кутузова,49.053798
55.870003,35514,Краснодонская,49.059578
55.869761,35515,Центрально-Мариупольская (трамвай),49.068398
55.869219,35516,Челюскина (Трамвай),49.080727
55.868035,35517,Ленинградская,49.088022
55.867189,35518,Годовикова,49.093237
55.86599,35519,Академика Павлова,49.097197
55.862411,35520,Караваево,49.106753
55.859507,35521,Максимова,49.102739
55.858634,35522,Трамвайная (ул. Годовикова),49.096456
55.858314,35523,Мировые судьи Авиастроительного района,49.090959
55.85454,35524,Метро Авиастроительная,49.085317
55.848715,35525,Дементьева,49.084066
55.841447,35526,Метро Северный вокзал,49.082417
55.837324,35527,Гагарина (ул. Декабристов),49.080774
55.833058,35528,пл. Восстания,49.08028
55.829727,35529,Усманова,49.07891
55.825009,35530,Соловецких Юнг,49.077585
55.822724,35531,Серова (трамвай),49.078197
55.81948,35532,Большая Крыловка (ул. Большая Крыловка),49.077115
55.815769,35533,Поперечно-Базарная (трамвай),49.076283
55.810627,35534,Мулланура Вахитова (ул. Большая Крыловка),49.075393
55.806965,35535,Шоссейная,49.07501
55.803059,35536,Речной техникум,49.073337
55.791039,35473,Ж/д вокзал,49.09873
55.803112,35474,Речной техникум,49.073499
55.807071,35475,Шоссейная,49.075058
55.810718,35476,Мулланура Вахитова (ул. Большая Крыловка),49.075433
55.81584,35477,Поперечно-Базарная (трамвай),49.07633
55.819445,35478,Большая Крыловка (ул. Большая Крыловка),49.077139
55.821859,35479,Серова (трамвай),49.078612
55.824939,35480,Соловецких Юнг,49.077592
55.829538,35481,Усманова,49.078874
55.832975,35482,пл. Восстания,49.080334
55.836926,35483,Гагарина (ул. Декабристов),49.080791
55.841345,35484,Метро Северный вокзал,49.082369
55.848651,35485,Дементьева,49.084131
55.854499,35486,Метро Авиастроительная,49.085604
55.858075,35487,Мировые судьи Авиастроительного района,49.09075
55.858742,35488,Трамвайная (ул. Годовикова),49.096057
55.859174,35489,Максимова,49.102429
55.862452,35490,Караваево,49.106896
55.865833,35491,Академика Павлова,49.097617
55.867161,35492,Годовикова,49.093636
55.867895,35493,Ленинградская,49.089115
55.869159,35494,Челюскина (Трамвай),49.081323
55.869768,35495,Центрально-Мариупольская (трамвай),49.069454
55.870009,35496,Краснодонская,49.060658
55.870188,35497,Кутузова,49.054084
55.870371,35498,Давыдова (ул. Айдарова),49.047393
55.866294,35499,Суворова,49.042873
55.866445,35500,Пожарского,49.037319
55.866631,35501,Серафимовича,49.030556
55.866784,35502,Завод сантехзаготовок,49.024895
55.866954,35503,Кинотеатр Юность,49.018611
55.867161,35504,Химиков,49.010711
55.905864,36410,пос. Краснооктябрьский,48.962762
55.895956,36412,Магазин,48.96277
55.867024,35746,Химфармзавод,49.010288
55.867053,35817,Жилплощадка,49.018418
55.867251,35818,Химфармзавод,49.010642
55.896119,36408,Магазин,48.962801
55.78078,36241,Парижской Коммуны,49.112428
55.767673,35842,пл. Вахитова,49.12689
55.751243,35741,Сыртлановой (ул. Гарифьянова),49.197511
55.751757,35742,Гарифьянова,49.204347
55.766974,35744,Ломжинская (ул. Юлиуса Фучика),49.232451
55.769262,36496,Ноксинский Спуск,49.241994
55.76525,36498,Центральная (Вознесенское),49.256766
55.767163,36499,Вишнёвая,49.259525
55.768318,36500,Старательный пер.,49.26491
55.769435,36501,Боковой пер.,49.264484
55.772393,36502,Нардуган,49.263607
55.774308,36503,Вознесенское,49.263922
55.777194,36504,Мечеть,49.264574
55.779574,36505,Магазин Августина,49.264692
55.781661,36484,Иман,49.263782
55.779515,36485,Магазин Августина,49.264652
55.777098,36486,Мечеть,49.264489
55.774412,36487,Вознесенское,49.263694
55.772689,36488,Нардуган,49.263552
55.76931,36489,Боковой пер.,49.264467
55.76839,36490,Старательный пер.,49.264817
55.767152,36491,Вишнёвая,49.258804
55.767062,36492,Заречная,49.252118
55.769394,36493,Ноксинский Спуск,49.24171
55.746292,36494,Сыртлановой (проспект Победы),49.201398
55.750926,36495,Сыртлановой (ул. Гарифьянова),49.196662
55.768228,35772,пл. Вахитова,49.12791
55.783377,35678,Академика Глушко д.15,49.234572
55.780145,35679,Кайбицкой,49.236136
55.749804,36179,Первомайский,49.163232
55.745034,36180,По требованию (Фермское шоссе),49.162684
55.737431,36181,Средний Кабан,49.162378
55.734194,36182,Садовая,49.161052
55.739082,36183,Складская,49.133409
55.733216,36184,Троллейбусное депо,49.143297
55.730341,36185,Борисково,49.15297
55.733603,36186,Садовая,49.160685
55.737387,36187,Средний Кабан,49.162594
55.745497,36188,По требованию (Фермское шоссе),49.162989
55.748917,36189,Первомайский,49.163741
55.788784,36190,Академика Глушко (ул. Хайдара Бигичева),49.22536
55.787473,35677,Магистральный проезд,49.230552
55.784383,36191,Дворец спорта Ак Буре,49.233585
55.799364,35378,Мост Миллениум (по требованию),49.152949
55.813738,35379,Алексея Козина,49.134265
55.816362,35380,Сибгата Хакима,49.134246
55.836867,35388,Кафе Солнышко,49.10152
55.839666,35798,Короленко (ул. Гагарина),49.100007
55.838872,35799,Октябрьская,49.09494
55.837993,35800,Гагарина (проспект Ибрагимова),49.089331
55.848417,35801,Дементьева,49.082434
55.849158,35802,Челюскина (ул. Тэцевская),49.075554
55.854362,35803,Рынок Авиастроительного района,49.075814
55.85699,35804,Горбольница №12,49.075963
55.860625,35805,Побежимова (ул. Челюскина),49.076644
55.863921,35806,Баня №14,49.078334
55.865833,35809,Караван Сарай,49.06321
55.866081,35810,Кутузова,49.054231
55.866173,35811,Дубинина,49.05078
55.866263,35812,Давыдова (ул. Беломорская),49.047487
55.866403,35813,Суворова,49.042357
55.866535,35814,Пожарского,49.03752
55.866718,35815,Серафимовича,49.030782
55.86692,35816,Завод сантехзаготовок,49.023306
55.865646,35745,Химическая,49.001409
55.866807,35747,Жилплощадка,49.01888
55.866701,35748,Завод сантехзаготовок,49.02357
55.866525,35749,Серафимовича,49.029548
55.866335,35750,Пожарского,49.036597
55.866164,35751,Суворова,49.042893
55.866044,35752,Давыдова (ул. Беломорская),49.047279
55.865939,35753,Дубинина,49.051128
55.865852,35754,Кутузова,49.054302
55.86562,35755,Караван Сарай,49.062804
55.865439,35756,Центрально-Мариупольская (автобус),49.069391
55.839574,35762,Короленко (ул. Гагарина),49.099835
55.85028,36288,ж/м Аки,49.259368
55.851331,36289,Транспортная (Аки),49.254495
55.852749,36290,Сосновка,49.246069
55.855313,36291,Родник,49.245799
55.857322,36292,Дорожная (Дербышки),49.244538
55.861296,36293,Шоссейная (Новая Сосновка),49.239463
55.870055,35738,ДК им. Саид-Галиева,49.22604
55.867059,36113,Магазин Восток,49.218793
55.871725,36114,ж/м Дербышки,49.222429
55.869254,36115,Стадион Ракета,49.228539
55.867527,36116,Советская,49.232477
55.867054,36282,Мира,49.234915
55.859041,36283,Шоссейная (Новая Сосновка),49.241601
55.857399,36284,Дорожная (Дербышки),49.244353
55.85535,36285,Родник,49.245729
55.852686,36286,Сосновка,49.246043
55.851279,36287,Транспортная (Аки),49.254325
55.772842,35910,Минская (проспект Победы),49.219489
55.794859,35824,Автовокзал Восточный,49.20683
55.795017,35825,Аграрная,49.20132
55.79844,35826,Космонавтов,49.191845
55.801635,35827,Кафе Полёт,49.187345
55.817733,35557,Академика Арбузова (ул. Сибирский тракт),49.182244
55.801634,35843,Кафе Полёт,49.187105
55.797033,35844,Космонавтов,49.19351
55.794622,35845,Аграрная,49.20342
55.79504,35846,Автовокзал Восточный,49.207923
55.775606,35919,Закиева,49.218888
55.772485,35920,Азино-2,49.220836
55.825139,36060,Горьковское шоссе,49.039333
55.832625,35635,Коллективная,49.090855
55.836551,36506,Поликлиника №7,49.133977
55.839783,36507,Детская библиотека,49.133977
55.852409,35571,УФМС,49.130603
55.842984,36508,Авторынок,49.135368
55.842968,36509,25-й квартал,49.139006
55.842965,36510,Брикетный,49.148283
55.842965,36511,Савиново,49.15377
55.839962,36512,МЖК,49.159272
55.792628,36140,ЦУМ,49.099115
55.871647,35621,Северополюсная,49.0807
55.869398,35622,Айдарова (ул. Челюскина),49.081076
55.792756,35574,Патриса Лумумбы,49.171303
55.788063,35575,Аделя Кутуя,49.170901
55.776105,35668,Кабельное телевидение,49.23303
55.780944,35669,Кайбицкой,49.236279
55.785111,35670,Дворец спорта Ак Буре,49.232997
55.788135,35671,Магистральный проезд,49.229718
55.787827,35598,Аделя Кутуя,49.171263
55.791807,35599,Патриса Лумумбы,49.171604
55.833908,35362,Восстания (проспект Ибрагимова),49.089977
55.865514,35711,Молодёжная,49.079151
55.869468,35712,Айдарова (ул. Челюскина),49.081178
55.744524,35975,Деревня Универсиады (ул. Академика Парина),49.180655
55.744953,35976,Пенсионный фонд,49.186719
55.776368,35977,Туфана Миннулина,49.132294
55.824499,35986,Сабан,49.054898
55.822568,35987,Батыршина,49.060046
55.823066,35966,Батыршина,49.059129
55.77637,35973,Туфана Миннулина,49.132031
55.744869,35974,Пенсионный фонд,49.184913
55.871797,36413,ж/м Дербышки,49.222445
55.835197,36446,Восстания (проспект Ибрагимова),49.089542
55.838256,36447,Гагарина (проспект Ибрагимова),49.088239
55.841778,36448,Воровского (проспект Ибрагимова),49.086738
55.84185,36443,Воровского (проспект Ибрагимова),49.086543
55.836823,36444,Гагарина (проспект Ибрагимова),49.088685
55.831144,36445,Школа №71,49.096038
55.819765,36401,Журналистов (ул. Журналистов),49.192325
55.821205,36402,ТК Советский,49.193271
55.827567,36403,Вещевой рынок,49.195498
55.831916,36404,Рынок стройматериалов,49.195125
55.835073,36405,Трамвайное депо №1,49.194689
55.833478,36164,Разъезд Восстания,49.061741
55.839338,36165,Магазин Стройматериалы,49.050803
55.838857,36166,Станция Восстание,49.046216
55.838423,36167,Завод ЖБИ-4,49.042086
55.837804,36168,Васильченко,49.036181
55.837327,36169,Переезд (ул. Васильченко),49.031548
55.837032,36170,Станция Левченко,49.028665
55.839106,36171,Магазин Мебельград,49.021567
55.839382,36172,Завод Полимерфото,49.024187
55.840018,36173,Рахимова,49.030237
55.84046,36141,ж/м Левченко,49.034096
55.840078,36142,Рахимова,49.030464
55.839457,36143,Завод Полимерфото,49.024557
55.839115,36144,Магазин Мебельград,49.021302
55.837048,36145,Станция Левченко,49.029437
55.837229,36146,Переезд (ул. Васильченко),49.031216
55.837822,36147,Васильченко,49.036969
55.838154,36148,Завод ЖБИ-4,49.040128
55.839056,36149,Станция Восстание,49.048722
55.839458,36150,Магазин Стройматериалы,49.052553
55.749097,36156,Сафиуллина (ул. Юлиуса Фучика),49.226115
55.91227,36477,ж/м Кульсеитово,49.230002
55.89943,36478,Берёзовка,49.251058
55.892583,36479,Станция 807км,49.249206
55.882059,36480,813-й км Федеральной трассы М7,49.245564
55.882514,36481,813-й км Федеральной трассы М7,49.244718
55.892794,36482,Станция 807км,49.249338
55.89968,36483,Берёзовка,49.250964
55.873639,35923,Гудованцева,49.020116
55.873724,35924,Моисеева,49.016983
55.871058,35925,Химиков,49.015866
55.867855,35926,Беломорская,49.015593
55.7871,35576,Аделя Кутуя,49.172424
55.785231,35577,Седова,49.180808
55.783003,35578,Завод ЖБИ-3,49.187905
55.778261,35927,Школа №126,49.191644
55.777381,35928,Бухарская,49.194325
55.774791,35929,Водоканал (ул. Родины),49.197821
55.772794,35930,пос. Дальний,49.198793
55.769688,35931,Скрябина,49.200307
55.766206,35932,Родина,49.204884
55.768011,35933,ТРЦ Южный,49.219425
55.767031,35936,Ломжинская (ул. Юлиуса Фучика),49.230238
55.767081,35937,Магазин Эдельвейс (ул. Ломжинская),49.221444
55.765268,35938,Родина,49.202526
55.769782,35939,Скрябина,49.200327
55.772434,35940,пос. Дальний,49.199035
55.773887,35941,Водоканал (ул. Родины),49.198327
55.777366,35942,Бухарская,49.194612
55.778183,35943,Школа №126,49.191748
55.783115,35596,Завод ЖБИ-3,49.187875
55.785528,35597,Седова,49.180025
55.867897,35944,Жилплощадка,49.02023
55.920916,36176,Садовые общества,49.145009
55.931068,36177,Поворот на пос. Крутушка,49.152995
55.927616,36174,ж/м Крутушка,49.198572
55.931286,36175,Поворот на пос. Крутушка,49.153349
55.881961,36414,Большие Дербышки-1,49.198145
55.892655,36415,Окружная,49.200198
55.881829,36416,Большие Дербышки-1,49.198029
55.877982,36417,Большие Дербышки,49.194505
55.868035,36418,ж/м Малые Дербышки,49.192609
55.878071,36419,Большие Дербышки,49.194705
55.871918,36049,ЖК Радужный,48.882617
55.869313,36050,Нурихана Фаттаха,48.884665
55.865369,36051,ЖК Салават Купере,48.886054
55.864628,36563,Воронино,48.913214
55.864629,36564,Ремплер,48.930183
55.86334,36565,Мостоотряд №3,48.962077
55.86193,36566,По требованию (ул. Тэцевская),49.000707
55.865245,36567,Химическая,49.001983
55.862726,36030,Общежитие,49.019722
55.85771,36031,Тэцевская,49.02016
55.854235,36032,Водоканал (ул. Тэцевская),49.027588
55.850987,36033,Вертолётный завод,49.040786
55.850521,36034,Хлебозаводская,49.048829
55.850131,36035,Совхоз Тепличный,49.055569
55.849065,36036,Белинского,49.067807
55.848642,36037,Челюскина (ул. Тэцевская),49.076524
55.779436,36513,ТЦ Мега,49.216317
55.84878,36023,Челюскина (ул. Тэцевская),49.074976
55.849167,36024,Белинского,49.066995
55.850246,36025,Совхоз Тепличный,49.054678
55.850546,36026,Хлебозаводская,49.049488
55.851107,36027,Вертолётный завод,49.039787
55.855481,36028,Водоканал (ул. Тэцевская),49.0251
55.862846,36029,Общежитие,49.019797
55.862021,36559,По требованию (ул. Тэцевская),49.00055
55.864109,36560,Мостоотряд №3,48.961189
55.864785,36561,Ремплер,48.928954
55.864619,36562,Воронино,48.912284
55.866448,36081,ЖК Салават Купере,48.885805
55.868936,36082,Нурихана Фаттаха,48.884914
55.871558,36083,ЖК Радужный,48.883038
55.750713,36255,Карбышева (ул. Профессора Камая),49.179981
55.751962,36256,Автотранспортный техникум,49.17838
55.751454,36257,МКДЦ,49.174951
55.751184,36278,МКДЦ,49.173688
55.751942,36279,Автотранспортный техникум,49.178673
55.750673,36280,Карбышева (ул. Профессора Камая),49.17979
55.754776,36281,10-й микрорайон,49.230852
55.793355,35573,Красной позиции,49.168496
55.782397,35579,По требованию  (Альберта Камалеева),49.197228
55.782372,35580,ТЦ Мега,49.209684
55.796229,35584,Малые Клыки,49.224516
55.796216,35585,пос. Большие Клыки,49.234506
55.79101,35586,ЖК Весна,49.24967
55.789032,35587,ЖК Весна-2,49.250597
55.791359,35588,ЖК Весна,49.249398
55.798699,35589,Магазин Эдельвейс (Мамадышский тракт),49.247038
55.79641,35590,пос. Большие Клыки,49.235098
55.796422,35591,Малые Клыки,49.222284
55.782468,35594,ТЦ Мега,49.206417
55.782486,35595,По требованию  (Альберта Камалеева),49.197418
55.790157,35600,Чеховский рынок,49.148449
55.766111,36195,Метро Аметьево,49.165122
55.767456,36196,Аметьево,49.16282
55.768581,36197,Школа №14,49.160062
55.772426,36198,Мичурина,49.155106
55.774557,36199,Качалова,49.146223
55.808633,36209,Новостройка,48.928009
55.809674,36210,Школа №8,48.919369
55.809946,36211,Приволжская,48.910499
55.809586,36212,Красная Горка,48.903954
55.814831,36213,Богатырская,48.902534
55.815043,36214,Привокзальная,48.893475
55.814127,36215,Богатырская,48.902527
55.809563,36216,Красная Горка,48.903555
55.809898,36217,Приволжская,48.910458
55.809726,36218,Школа №8,48.918629
55.808572,36219,Новостройка,48.928211
55.775074,36229,Нурсултана Назарбаева,49.142894
55.774674,36230,Качалова,49.146479
55.772091,36231,Мичурина,49.155538
55.768684,36232,Школа №14,49.159885
55.76733,36233,Аметьево,49.162875
55.714333,35945,ЖК Лесной городок,49.1832
55.722219,35946,Братьев Батталовых,49.189148
55.724925,35947,ТЦ Порт,49.190544
55.730803,35948,Общежитие РКБ,49.190168
55.803353,35949,Кафе Полёт,49.187517
55.805995,35950,Зур Урам,49.19224
55.834593,35956,Чуйкова,49.120877
55.733376,35962,РКБ,49.184368
55.730702,35963,Общежитие РКБ,49.189828
55.723814,35964,ТЦ Порт,49.189805
55.721695,35965,Братьев Батталовых,49.188713
55.7503,36571,Метро Проспект Победы,49.20968
55.769724,35836,Горбольница №5,49.110179
55.798867,35847,Магазин Эдельвейс (Мамадышский тракт),49.24842
55.800586,35848,Самосырово-1,49.256074
55.8014,35849,Самосырово,49.26306
55.805747,35850,Интернациональная,49.266022
55.808903,35851,Детский сад №148,49.266667
55.811077,35819,ж/м Константиновка,49.267129
55.809057,35820,Детский сад №148,49.266634
55.806017,35821,Интернациональная,49.266013
55.801571,35822,Самосырово,49.262936
55.800675,35823,Самосырово-1,49.255468
55.864305,36112,Интернат (Дербышки),49.220317
55.885831,36121,Научный городок,49.266556
55.895132,36122,ВНИВИ,49.281906
55.905552,36123,Молодёжная,49.300784
55.911605,36124,Сосновая,49.306822
55.919208,36125,ТРК Высокая Гора,49.313734
55.921899,36126,Полковая,49.305965
55.918882,36127,АРЗ,49.301541
55.92172,36128,Полковая,49.306823
55.918506,36129,ТРК Высокая Гора,49.313557
55.912411,36130,Сосновая,49.307685
55.905725,36131,Молодёжная,49.300827
55.894385,36132,ВНИВИ,49.280627
55.886337,36133,Научный городок,49.267147
55.881646,36046,пос. Осиново,48.885073
55.876117,36047,Осиновская гимназия,48.8866
55.873512,36048,Садовая,48.884429
55.855033,36052,Осиновская,48.890264
55.854597,36080,Осиновская,48.89067
55.873567,36084,Садовая,48.884679
55.876245,36085,Осиновская гимназия,48.886716
55.817954,36234,Степана Халтурина,49.059233
55.817124,36235,Краснококшайская,49.063194
55.814344,36236,Поперечно-Базарная (ул. Краснококшайская),49.071068
55.809899,36237,Мулланура Вахитова (ул. Большая Крыловка),49.07505
55.806266,36238,Шоссейная,49.074617
55.832736,36242,Восход,49.073473
55.828963,36243,Усманова,49.073197
55.826073,36244,Блюхера,49.07067
55.826341,36245,Серова (автобус),49.064495
55.730122,36596,Мидхата Булатова,49.169516
55.73187,36597,Баки Урманче,49.175407
55.734664,36598,ж/м Солнечный город,49.180507
55.741155,36599,Деревня Универсиады (проспект Победы),49.192438
55.744893,36600,Сыртлановой (проспект Победы),49.19931
55.750475,36601,Метро Проспект Победы,49.209612
55.754505,36602,Сафиуллина (проспект Победы),49.217062
55.762389,36603,Чишмяле (проспект Победы),49.219064
55.766644,36604,Ломжинская (проспект Победы),49.21912
55.772181,36605,Минская (проспект Победы),49.219193
55.77592,36606,Закиева,49.219242
55.78204,36607,Академика Сахарова (трамвай),49.219378
55.788487,36608,Академика Глушко (проспект Победы),49.219525
55.791806,36609,Агропромышленный парк Казань,49.219573
55.800546,36610,Академия Правосудия,49.211686
55.804934,36611,Строительная фирма Тектоник,49.206499
55.809486,36612,Академика Губкина,49.201113
55.812464,36613,Торговый дом Риф Эль,49.19597
55.814901,36614,Академика Арбузова,49.184232
55.818914,35602,Ветеринарная академия,49.176781
55.823143,35603,Футбольный стадион Казань Арена (Ямашева проспект),49.164182
55.825949,35604,Гаврилова (проспект Ямашева),49.154348
55.827128,35605,Адоратского,49.147906
55.827127,35606,Фатыха Амирхана,49.134789
55.827129,35607,Мусина (проспект Ямашева),49.121517
55.827119,35608,Парк Победы,49.110724
55.8271,35609,Короленко (трамвай),49.100202
55.826224,35610,ДК Химиков,49.089918
55.822478,35611,Серова (трамвай),49.080007
55.826238,35612,ДК Химиков,49.090088
55.827064,35613,Магазин Океан,49.100163
55.82708,35614,Парк Победы,49.110337
55.827093,35615,Мусина (проспект Ямашева),49.121467
55.827091,35616,Фатыха Амирхана,49.134766
55.827092,35617,Адоратского,49.14785
55.825919,35618,Гаврилова (проспект Ямашева),49.154318
55.823082,35619,Футбольный стадион Казань Арена (Ямашева проспект),49.164288
55.818927,35620,Ветеринарная академия,49.176682
55.814811,36615,Академика Арбузова,49.18448
55.81244,36616,Торговый дом Риф Эль,49.195854
55.809975,36617,Академика Губкина,49.200436
55.805018,36618,Строительная фирма Тектоник,49.206323
55.80093,36619,Академия Правосудия,49.211155
55.791876,36620,Агропромышленный парк Казань,49.21951
55.788432,36621,Академика Глушко (проспект Победы),49.21946
55.782094,36622,Академика Сахарова (трамвай),49.219315
55.772812,36624,Минская (проспект Победы),49.219138
55.767497,36625,Ломжинская (проспект Победы),49.219067
55.762322,36626,Чишмяле (проспект Победы),49.218999
55.754601,36627,Сафиуллина (проспект Победы),49.217147
55.750467,36628,Метро Проспект Победы,49.209505
55.745451,36629,Сыртлановой (проспект Победы),49.200248
55.74164,36630,Деревня Универсиады (проспект Победы),49.193239
55.734739,36631,ж/м Солнечный город,49.180552
55.73197,36632,Баки Урманче,49.17538
55.730197,36633,Мидхата Булатова,49.169876
55.701378,36536,ж/м Старое Победилово,49.06752
55.701339,36537,Садовая (Старое Победилово),49.075302
55.702712,36538,Коммуна,49.08442
55.706693,36539,Отары,49.096441
55.709676,36540,Калинина (Отары),49.098486
55.713828,36541,Магазин (Отары),49.101733
55.718214,36542,Трансформаторная,49.105165
55.723664,36543,Центрально-Отарская,49.108991
55.724951,36544,Поперечно-Отарская,49.105364
55.728184,36545,2-й переезд (ул. Южно-Промышленная),49.098786
55.731496,36546,Нефтебаза,49.093617
55.735399,36547,Тихорецкая,49.099023
55.737597,36548,пос. Кукушкино,49.102281
55.74266,36549,Юридическая академия,49.104914
55.744858,36550,Гаражная,49.104923
55.749074,36551,Промбаза,49.104966
55.75368,36552,Магистральная,49.105223
55.756511,36553,Макаронная фабрика,49.105695
55.760331,36554,Меховщиков (по требованию),49.10283
55.763284,36555,Заводская,49.102096
55.766337,36556,Мехобъединение,49.105099
55.769041,36557,Аквапарк,49.103919
55.772049,36558,Автовокзал,49.10285
55.771244,36514,Зайцева,49.103023
55.769141,36515,Аквапарк,49.10377
55.766171,36516,Мехобъединение,49.104749
55.763352,36517,Заводская,49.102009
55.760517,36518,Меховщиков (по требованию),49.1028
55.756616,36519,Макаронная фабрика,49.105601
55.753004,36520,Магистральная,49.104999
55.748775,36521,Промбаза,49.104851
55.745337,36522,Гаражная,49.104817
55.742109,36523,Юридическая академия,49.104803
55.737144,36524,пос. Кукушкино,49.101465
55.731225,36525,Нефтебаза,49.094353
55.727844,36526,2-й переезд (ул. Южно-Промышленная),49.099077
55.724943,36527,Поперечно-Отарская,49.105241
55.723847,36528,Центрально-Отарская,49.108992
55.718334,36529,Трансформаторная,49.105189
55.713756,36530,Магазин (Отары),49.101607
55.709851,36531,Калинина (Отары),49.098545
55.706888,36532,Отары,49.096537
55.702819,36533,Коммуна,49.085072
55.701372,36534,Садовая (Старое Победилово),49.075756
55.701413,36535,ж/м Старое Победилово,49.067728
55.783221,36453,Дворец спорта Ак Буре,49.23132
55.878639,36320,Камчатская,49.10091
55.877652,36321,ГСК,49.107199
55.876465,36322,Садовое общество КАПО-14,49.115481
55.877047,36323,Шоссейная (Борисоглебское),49.129504
55.87824,36324,Рабочая,49.140937
55.879542,36325,ж/м Борисоглебское,49.147547
55.878315,36326,Рабочая,49.141135
55.877079,36327,Шоссейная (Борисоглебское),49.129375
55.876557,36328,Садовое общество КАПО-14,49.114938
55.877735,36329,ГСК,49.106886
55.835885,35564,Роддом №1,49.148074
55.840247,35567,МЖК,49.159384
55.843028,35568,Савиново,49.153335
55.818837,35601,Халитова 2,49.182244
55.780399,36568,Торговые ряды Алтын,49.125237
55.783955,36569,Салимжанова,49.120451
55.772363,36570,Филармония (троллейбус),49.141025
55.812793,36634,Большая Крыловка (ул. Краснококшайская),49.077727
55.814929,36635,Мулланура Вахитова,49.086291
55.817085,36636,Энергетический университет,49.094603
55.826074,36637,Адоратского,49.147213
55.817834,36638,Метро Козья Слобода,49.096728
55.816479,36639,Энергетический университет,49.091505
55.814794,36640,Мулланура Вахитова,49.085007
55.825818,36641,Горьковское шоссе,49.043101
55.768325,35730,Яфраклы,49.235935
55.751998,35731,Гарифьянова,49.203455
55.75154,35732,Сыртлановой (ул. Гарифьянова),49.19735
55.785793,36021,Строительный институт,49.142589
55.788408,36022,Волкова,49.143751
55.808006,36246,Су Анасы,48.929607
55.805807,36220,Гипсовый завод,48.936501
55.803706,36221,Затон,48.94246
55.859727,36572,Максимова,49.103398
55.750122,36335,ИЖС Восточный,49.24833
55.854317,35705,КДК им. Ленина,49.087328
